sid,name,_other,_zhuan,_ben,_2_first_rate,_211,_c9,_top_2,_985,level,lat,lng,province,city,district
1,北京大学,1,0,2,3,3,4,5,3,本科,39.99173,116.30965,北京市,北京市,海淀区
2,中国人民大学,1,0,2,3,3,0,0,3,本科,39.99173,116.30965,北京市,北京市,海淀区
3,清华大学,1,0,2,3,3,4,5,3,本科,40.0036,116.32697,北京市,北京市,海淀区
4,北京交通大学,1,0,2,3,3,0,0,0,本科,39.95092,116.34107,北京市,北京市,海淀区
5,北京工业大学,1,0,2,3,3,0,0,0,本科,39.87385,116.48067,北京市,北京市,朝阳区
6,北京航空航天大学,1,0,2,3,3,0,0,3,本科,39.98421,116.34975,北京市,北京市,海淀区
7,北京理工大学,1,0,2,3,3,0,0,3,本科,39.96091,116.31667,北京市,北京市,海淀区
8,北京科技大学,1,0,2,3,3,0,0,0,本科,39.99135,116.36072,北京市,北京市,海淀区
9,北方工业大学,1,0,2,0,0,0,0,0,本科,39.9289,116.20819,北京市,北京市,石景山区
10,北京化工大学,1,0,2,3,3,0,0,0,本科,39.97069,116.42098,北京市,北京市,朝阳区
11,北京工商大学,1,0,2,0,0,0,0,0,本科,39.9256,116.31492,北京市,北京市,海淀区
12,北京服装学院,1,0,2,0,0,0,0,0,本科,39.97402,116.43062,北京市,北京市,朝阳区
13,北京邮电大学,1,0,2,3,3,0,0,0,本科,39.96337,116.35685,北京市,北京市,海淀区
14,北京印刷学院,1,0,2,0,0,0,0,0,本科,39.74415,116.32903,北京市,北京市,大兴区
15,北京建筑大学,1,0,2,0,0,0,0,0,本科,39.752597,116.285514,北京市,北京市,大兴区
16,北京石油化工学院,1,0,2,0,0,0,0,0,本科,39.7482,116.3264,北京市,北京市,大兴区
17,北京电子科技学院,1,0,2,0,0,0,0,0,本科,39.83686,116.28043,北京市,北京市,丰台区
18,中国农业大学,1,0,2,3,3,0,0,3,本科,40.00494,116.35745,北京市,北京市,海淀区
19,北京农学院,1,0,2,0,0,0,0,0,本科,40.09389,116.30856,北京市,北京市,昌平区
20,北京林业大学,1,0,2,3,3,0,0,0,本科,40.00199,116.34494,北京市,北京市,海淀区
21,北京协和医学院,1,0,2,3,0,0,0,0,本科,39.91115,116.41484,北京市,北京市,东城区
22,首都医科大学,1,0,2,0,0,0,0,0,本科,39.91215,116.35445,北京市,北京市,西城区
23,北京中医药大学,1,0,2,3,3,0,0,0,本科,39.97057,116.42666,北京市,北京市,朝阳区
24,北京师范大学,1,0,2,3,3,0,0,3,本科,39.96168,116.36588,北京市,北京市,海淀区
25,首都师范大学,1,0,2,3,0,0,0,0,本科,39.93069,116.30658,北京市,北京市,海淀区
26,首都体育学院,1,0,2,0,0,0,0,0,本科,39.96999,116.34636,北京市,北京市,海淀区
27,北京外国语大学,1,0,2,3,3,0,0,0,本科,39.95571,116.31306,北京市,北京市,海淀区
28,北京第二外国语学院,1,0,2,0,0,0,0,0,本科,39.91335,116.56345,北京市,北京市,朝阳区
29,北京语言大学,1,0,2,0,0,0,0,0,本科,39.99467,116.34556,北京市,北京市,海淀区
30,中国传媒大学,1,0,2,3,3,0,0,0,本科,39.91293,116.55757,北京市,北京市,朝阳区
31,中央财经大学,1,0,2,3,3,0,0,0,本科,39.95936,116.34216,北京市,北京市,海淀区
32,对外经济贸易大学,1,0,2,3,3,0,0,0,本科,39.97944,116.42888,北京市,北京市,朝阳区
33,北京物资学院,1,0,2,0,0,0,0,0,本科,39.92888,116.63964,北京市,北京市,通州区
34,首都经济贸易大学,1,0,2,0,0,0,0,0,本科,39.8424,116.3167,北京市,北京市,丰台区
35,外交学院,1,0,2,3,0,0,0,0,本科,39.92638,116.34617,北京市,北京市,西城区
36,中国人民公安大学,1,0,2,3,0,0,0,0,本科,39.7657,116.36782,北京市,北京市,大兴区
37,国际关系学院,1,0,2,0,0,0,0,0,本科,40.00385,116.28612,北京市,北京市,海淀区
38,北京体育大学,1,0,2,3,3,0,0,0,本科,40.02251,116.31807,北京市,北京市,海淀区
39,中央音乐学院,1,0,2,3,3,0,0,0,本科,39.90239,116.35794,北京市,北京市,西城区
40,中国音乐学院,1,0,2,3,0,0,0,0,本科,39.9911,116.37956,北京市,北京市,朝阳区
41,中央美术学院,1,0,2,3,0,0,0,0,本科,39.98359,116.46375,北京市,北京市,朝阳区
42,中央戏剧学院,1,0,2,3,0,0,0,0,本科,40.1045,116.3753,北京市,北京市,昌平区
43,中国戏曲学院,1,0,2,0,0,0,0,0,本科,39.86339,116.33272,北京市,北京市,丰台区
44,北京电影学院,1,0,2,0,0,0,0,0,本科,39.97194,116.35592,北京市,北京市,海淀区
45,北京舞蹈学院,1,0,2,0,0,0,0,0,本科,39.94699,116.31959,北京市,北京市,海淀区
46,中央民族大学,1,0,2,3,3,0,0,3,本科,39.95108,116.32029,北京市,北京市,海淀区
47,中国政法大学,1,0,2,3,3,0,0,0,本科,40.22278,116.24718,北京市,北京市,昌平区
48,华北电力大学,1,0,2,3,3,0,0,0,本科,40.09009,116.30907,北京市,北京市,昌平区
49,中华女子学院,1,0,2,0,0,0,0,0,本科,36.55541,116.82504,山东省,济南市,长清区
50,北京信息科技大学,1,0,2,0,0,0,0,0,本科,39.9893,116.38212,北京市,北京市,朝阳区
51,中国矿业大学（北京）,1,0,2,0,0,0,0,0,本科,39.99743,116.35026,北京市,北京市,海淀区
52,中国石油大学（北京）,1,0,2,0,0,0,0,0,本科,40.21933,116.2474,北京市,北京市,昌平区
53,中国地质大学（北京）,1,0,2,0,0,0,0,0,本科,39.99108,116.34819,北京市,北京市,海淀区
54,北京联合大学,1,0,2,0,0,0,0,0,本科,39.99011,116.42731,北京市,北京市,朝阳区
55,北京城市学院,1,0,2,0,0,0,0,0,本科,39.98732,116.34678,北京市,北京市,海淀区
56,中国青年政治学院,1,0,2,0,0,0,0,0,本科,39.95066,116.30832,北京市,北京市,海淀区
57,首钢工学院,1,0,2,0,0,0,0,0,本科,39.92658,116.20293,北京市,北京市,石景山区
58,中国劳动关系学院,1,0,2,0,0,0,0,0,本科,39.92897,116.31662,北京市,北京市,海淀区
59,北京吉利学院,1,0,2,0,0,0,0,0,本科,39.90469,116.40717,北京市,北京市,东城区
60,首都师范大学科德学院,1,0,2,0,0,0,0,0,本科,39.51321,116.31256,北京市,北京市,大兴区
61,北京工商大学嘉华学院,1,0,2,0,0,0,0,0,本科,39.93476,116.73293,北京市,北京市,通州区
62,北京邮电大学世纪学院,1,0,2,0,0,0,0,0,本科,40.37187,115.892,北京市,北京市,延庆区
63,北京工业大学耿丹学院,1,0,2,0,0,0,0,0,本科,40.21544,116.65272,北京市,北京市,顺义区
64,北京警察学院,1,0,2,0,0,0,0,0,本科,40.249877,116.171042,北京市,北京市,昌平区
65,北京第二外国语学院中瑞酒店管理学院,1,0,2,0,0,0,0,0,本科,39.61843,116.30718,北京市,北京市,大兴区
66,中国科学院大学,1,0,2,3,0,0,0,0,本科,39.98162,116.33009,北京市,北京市,海淀区
67,北京工业职业技术学院,1,1,0,0,0,0,0,0,专科,39.95925,116.12314,北京市,北京市,石景山区
68,北京信息职业技术学院,1,1,0,0,0,0,0,0,专科,39.97307,116.48289,北京市,北京市,朝阳区
69,北京电子科技职业学院,1,1,0,0,0,0,0,0,专科,39.95892,116.44007,北京市,北京市,朝阳区
70,北京京北职业技术学院,1,1,0,0,0,0,0,0,专科,40.33937,116.64156,北京市,北京市,怀柔区
71,北京交通职业技术学院,1,1,0,0,0,0,0,0,专科,40.22734,116.20349,北京市,北京市,昌平区
72,北京青年政治学院,1,1,0,0,0,0,0,0,专科,39.98149,116.47495,北京市,北京市,朝阳区
73,北京农业职业学院,1,1,0,0,0,0,0,0,专科,39.77417,116.22654,北京市,北京市,房山区
74,北京政法职业学院,1,1,0,0,0,0,0,0,专科,39.78304,116.29793,北京市,北京市,大兴区
75,北京财贸职业学院,1,1,0,0,0,0,0,0,专科,39.92084,116.64785,北京市,北京市,通州区
76,北京北大方正软件职业技术学院,1,1,0,0,0,0,0,0,专科,39.90469,116.40717,北京市,北京市,东城区
77,北京经贸职业学院,1,1,0,0,0,0,0,0,专科,39.72108,116.16449,北京市,北京市,房山区
78,北京经济技术职业学院,1,1,0,0,0,0,0,0,专科,39.90469,116.40717,北京市,北京市,东城区
79,北京戏曲艺术职业学院,1,1,0,0,0,0,0,0,专科,39.85561,116.37882,北京市,北京市,丰台区
80,北京汇佳职业学院,1,1,0,0,0,0,0,0,专科,40.19549,116.24325,北京市,北京市,昌平区
81,北京科技经营管理学院,1,1,0,0,0,0,0,0,专科,40.14451,116.2896,北京市,北京市,昌平区
82,北京科技职业学院,1,1,0,0,0,0,0,0,专科,40.11722,116.25003,北京市,北京市,昌平区
83,北京培黎职业学院,1,1,0,0,0,0,0,0,专科,39.90469,116.40717,北京市,北京市,东城区
84,北京经济管理职业学院,1,1,0,0,0,0,0,0,专科,39.98386,116.47451,北京市,北京市,朝阳区
85,北京劳动保障职业学院,1,1,0,0,0,0,0,0,专科,40.2252,116.18568,北京市,北京市,昌平区
86,北京社会管理职业学院,1,1,0,0,0,0,0,0,专科,39.90469,116.40717,北京市,北京市,东城区
87,北京艺术传媒职业学院,1,1,0,0,0,0,0,0,专科,40.09916,116.11972,北京市,北京市,海淀区
88,北京体育职业学院,1,1,0,0,0,0,0,0,专科,39.85307,116.41074,北京市,北京市,丰台区
89,北京交通运输职业学院,1,1,0,0,0,0,0,0,专科,39.74518,116.34286,北京市,北京市,大兴区
90,北京卫生职业学院,1,1,0,0,0,0,0,0,专科,39.90469,116.40717,北京市,北京市,东城区
91,北京网络职业学院,1,1,0,0,0,0,0,0,专科,39.68842,116.06673,北京市,北京市,房山区
92,南开大学,1,0,2,3,3,0,0,3,本科,39.10363,117.17035,天津市,天津市,南开区
93,天津大学,1,0,2,3,3,0,0,3,本科,39.110732,117.162865,天津市,天津市,南开区
94,天津科技大学,1,0,2,0,0,0,0,0,本科,39.07018,117.27175,天津市,天津市,河西区
95,天津工业大学,1,0,2,3,0,0,0,0,本科,39.06552,117.11415,天津市,天津市,西青区
96,中国民航大学,1,0,2,0,0,0,0,0,本科,39.11189,117.35112,天津市,天津市,东丽区
97,天津理工大学,1,0,2,0,0,0,0,0,本科,39.06098,117.14206,天津市,天津市,西青区
98,天津农学院,1,0,2,0,0,0,0,0,本科,39.09118,117.10059,天津市,天津市,西青区
99,天津医科大学,1,0,2,3,3,0,0,0,本科,39.10645,117.18443,天津市,天津市,和平区
100,天津中医药大学,1,0,2,3,0,0,0,0,本科,39.11751,117.16708,天津市,天津市,南开区
101,天津师范大学,1,0,2,0,0,0,0,0,本科,39.06209,117.12706,天津市,天津市,西青区
102,天津职业技术师范大学,1,0,2,0,0,0,0,0,本科,39.05867,117.29638,天津市,天津市,津南区
103,天津外国语大学,1,0,2,0,0,0,0,0,本科,39.10803,117.20984,天津市,天津市,河西区
104,天津商业大学,1,0,2,0,0,0,0,0,本科,39.18075,117.12535,天津市,天津市,北辰区
105,天津财经大学,1,0,2,0,0,0,0,0,本科,39.06145,117.27839,天津市,天津市,河西区
106,天津体育学院,1,0,2,0,0,0,0,0,本科,39.07585,117.18758,天津市,天津市,河西区
107,天津音乐学院,1,0,2,0,0,0,0,0,本科,39.0851,117.19937,天津市,天津市,河西区
108,天津美术学院,1,0,2,0,0,0,0,0,本科,39.15333,117.19369,天津市,天津市,河北区
109,天津城建大学,1,0,2,0,0,0,0,0,本科,39.09528,117.09623,天津市,天津市,西青区
110,天津天狮学院,1,0,2,0,0,0,0,0,本科,39.40203,117.07186,天津市,天津市,武清区
111,天津中德应用技术大学,1,0,2,0,0,0,0,0,本科,39.0851,117.19937,天津市,天津市,河西区
112,天津外国语大学滨海外事学院,1,0,2,0,0,0,0,0,本科,38.86005,117.46768,天津市,天津市,滨海新区
113,天津体育学院运动与文化艺术学院,1,0,2,0,0,0,0,0,本科,39.07585,117.18758,天津市,天津市,河西区
114,天津商业大学宝德学院,1,0,2,0,0,0,0,0,本科,39.09046,117.09335,天津市,天津市,西青区
115,天津医科大学临床医学院,1,0,2,0,0,0,0,0,本科,38.86689,117.46345,天津市,天津市,滨海新区
116,南开大学滨海学院,1,0,2,0,0,0,0,0,本科,38.86257,117.44986,天津市,天津市,滨海新区
117,天津师范大学津沽学院,1,0,2,0,0,0,0,0,本科,39.05533,117.1246,天津市,天津市,西青区
118,天津理工大学中环信息学院,1,0,2,0,0,0,0,0,本科,39.12678,117.01869,天津市,天津市,西青区
119,北京科技大学天津学院,1,0,2,0,0,0,0,0,本科,39.99135,116.36072,北京市,北京市,海淀区
120,天津大学仁爱学院,1,0,2,0,0,0,0,0,本科,38.88536,117.15686,天津市,天津市,静海区
121,天津财经大学珠江学院,1,0,2,0,0,0,0,0,本科,39.55094,117.40564,天津市,天津市,宝坻区
122,天津市职业大学,1,1,0,0,0,0,0,0,专科,39.0851,117.19937,天津市,天津市,河西区
123,天津滨海职业学院,1,1,0,0,0,0,0,0,专科,39.06948,117.6456,天津市,天津市,滨海新区
124,天津工程职业技术学院,1,1,0,0,0,0,0,0,专科,38.72446,117.50076,天津市,天津市,滨海新区
125,天津青年职业学院,1,1,0,0,0,0,0,0,专科,39.01053,117.35213,天津市,天津市,津南区
126,天津渤海职业技术学院,1,1,0,0,0,0,0,0,专科,39.26317,117.36194,天津市,天津市,北辰区
127,天津电子信息职业技术学院,1,1,0,0,0,0,0,0,专科,39.00831,117.3786,天津市,天津市,津南区
128,天津机电职业技术学院,1,1,0,0,0,0,0,0,专科,39.17593,117.13529,天津市,天津市,红桥区
129,天津现代职业技术学院,1,1,0,0,0,0,0,0,专科,39.01903,117.36893,天津市,天津市,津南区
130,天津公安警官职业学院,1,1,0,0,0,0,0,0,专科,39.00493,117.11004,天津市,天津市,西青区
131,天津轻工职业技术学院,1,1,0,0,0,0,0,0,专科,39.0213,117.37421,天津市,天津市,津南区
132,天津商务职业学院,1,1,0,0,0,0,0,0,专科,39.00763,117.34878,天津市,天津市,津南区
133,天津国土资源和房屋职业学院,1,1,0,0,0,0,0,0,专科,38.86931,117.45623,天津市,天津市,滨海新区
134,天津医学高等专科学校,1,1,0,0,0,0,0,0,专科,39.07302,117.28763,天津市,天津市,河西区
135,天津开发区职业技术学院,1,1,0,0,0,0,0,0,专科,39.0851,117.19937,天津市,天津市,河西区
136,天津艺术职业学院,1,1,0,0,0,0,0,0,专科,39.0913,117.27463,天津市,天津市,河东区
137,天津交通职业学院,1,1,0,0,0,0,0,0,专科,39.14917,117.0768,天津市,天津市,西青区
138,天津冶金职业技术学院,1,1,0,0,0,0,0,0,专科,39.26163,117.11387,天津市,天津市,北辰区
139,天津石油职业技术学院,1,1,0,0,0,0,0,0,专科,38.84345,117.21885,天津市,天津市,静海区
140,天津城市职业学院,1,1,0,0,0,0,0,0,专科,39.14932,117.23662,天津市,天津市,河东区
141,天津铁道职业技术学院,1,1,0,0,0,0,0,0,专科,39.17159,117.22076,天津市,天津市,河北区
142,天津工艺美术职业学院,1,1,0,0,0,0,0,0,专科,39.17389,117.22371,天津市,天津市,河北区
143,天津城市建设管理职业技术学院,1,1,0,0,0,0,0,0,专科,39.19252,117.10895,天津市,天津市,北辰区
144,天津生物工程职业技术学院,1,1,0,0,0,0,0,0,专科,39.07406,117.54215,天津市,天津市,东丽区
145,天津海运职业学院,1,1,0,0,0,0,0,0,专科,39.00028,117.36556,天津市,天津市,津南区
146,天津广播影视职业学院,1,1,0,0,0,0,0,0,专科,39.12067,117.11504,天津市,天津市,西青区
147,河北大学,1,0,2,0,0,0,0,0,本科,38.88164,115.57077,河北省,保定市,莲池区
148,河北工程大学,1,0,2,0,0,0,0,0,本科,36.57183,114.5012,河北省,邯郸市,邯山区
149,河北地质大学,1,0,2,0,0,0,0,0,本科,38.33201,114.7716,河北省,石家庄市,新乐市
150,河北工业大学,1,0,2,3,3,0,0,0,本科,39.23497,117.0582,天津市,天津市,北辰区
151,华北理工大学,1,0,2,0,0,0,0,0,本科,39.58424,118.0904,河北省,唐山市,丰南区
152,河北科技大学,1,0,2,0,0,0,0,0,本科,37.97704,114.52878,河北省,石家庄市,裕华区
153,河北建筑工程学院,1,0,2,0,0,0,0,0,本科,40.75995,114.89893,河北省,张家口市,桥东区
154,河北水利电力学院,1,0,2,0,0,0,0,0,本科,38.2958,116.80046,河北省,沧州市,运河区
155,河北农业大学,1,0,2,0,0,0,0,0,本科,38.82672,115.44821,河北省,保定市,莲池区
156,河北医科大学,1,0,2,0,0,0,0,0,本科,38.05733,114.4826,河北省,石家庄市,新华区
157,河北北方学院,1,0,2,0,0,0,0,0,本科,40.77085,114.87853,河北省,张家口市,桥东区
158,承德医学院,1,0,2,0,0,0,0,0,本科,41.03297,117.95554,河北省,承德市,双桥区
159,河北师范大学,1,0,2,0,0,0,0,0,本科,38.00627,114.46237,河北省,石家庄市,桥西区
160,保定学院,1,0,2,0,0,0,0,0,本科,38.88048,115.57788,河北省,保定市,莲池区
161,河北民族师范学院,1,0,2,0,0,0,0,0,本科,40.89268,117.95853,河北省,承德市,双桥区
162,唐山师范学院,1,0,2,0,0,0,0,0,本科,39.67357,118.17466,河北省,唐山市,路北区
163,廊坊师范学院,1,0,2,0,0,0,0,0,本科,39.52612,116.67243,河北省,廊坊市,安次区
164,衡水学院,1,0,2,0,0,0,0,0,本科,37.74392,115.66246,河北省,衡水市,桃城区
165,石家庄学院,1,0,2,0,0,0,0,0,本科,38.020854,114.602933,河北省,石家庄市,裕华区
166,邯郸学院,1,0,2,0,0,0,0,0,本科,36.57703,114.50953,河北省,邯郸市,邯郸县
167,邢台学院,1,0,2,0,0,0,0,0,本科,37.09077,114.50545,河北省,邢台市,桥东区
168,沧州师范学院,1,0,2,0,0,0,0,0,本科,38.28695,116.78319,河北省,沧州市,运河区
169,石家庄铁道大学,1,0,2,0,0,0,0,0,本科,38.08258,114.50888,河北省,石家庄市,长安区
170,燕山大学,1,0,2,0,0,0,0,0,本科,39.90622,119.52818,河北省,秦皇岛市,海港区
171,河北科技师范学院,1,0,2,0,0,0,0,0,本科,39.70749,119.17859,河北省,秦皇岛市,昌黎县
172,唐山学院,1,0,2,0,0,0,0,0,本科,39.65799,118.17082,河北省,唐山市,路北区
173,华北科技学院,1,0,2,0,0,0,0,0,本科,39.95542,116.80464,河北省,廊坊市,三河市
174,中国人民武装警察部队学院,1,0,2,0,0,0,0,0,本科,39.53181,116.664052,河北省,廊坊市,安次区
175,河北体育学院,1,0,2,0,0,0,0,0,本科,38.12306,114.50084,河北省,石家庄市,长安区
176,河北金融学院,1,0,2,0,0,0,0,0,本科,38.91988,115.49863,河北省,保定市,莲池区
177,北华航天工业学院,1,0,2,0,0,0,0,0,本科,39.52805,116.73231,河北省,廊坊市,广阳区
178,防灾科技学院,1,0,2,0,0,0,0,0,本科,39.95139,116.799015,河北省,廊坊市,三河市
179,河北经贸大学,1,0,2,0,0,0,0,0,本科,38.1357,114.49283,河北省,石家庄市,新华区
180,中央司法警官学院,1,0,2,0,0,0,0,0,本科,38.88139,115.51439,河北省,保定市,莲池区
181,河北传媒学院,1,0,2,0,0,0,0,0,本科,38.09593,114.43039,河北省,石家庄市,新华区
182,河北工程技术学院,1,0,2,0,0,0,0,0,本科,37.98324,114.46652,河北省,石家庄市,桥西区
183,河北美术学院,1,0,2,0,0,0,0,0,本科,39.15333,117.19369,天津市,天津市,河北区
184,河北科技学院,1,0,2,0,0,0,0,0,本科,38.81488,115.49216,河北省,保定市,莲池区
185,河北外国语学院,1,0,2,0,0,0,0,0,本科,37.99626,114.4563,河北省,石家庄市,桥西区
186,河北大学工商学院,1,0,2,0,0,0,0,0,本科,38.8807,115.56596,河北省,保定市,莲池区
187,华北理工大学轻工学院,1,0,2,0,0,0,0,0,本科,39.67729,118.16043,河北省,唐山市,路北区
188,河北科技大学理工学院,1,0,2,0,0,0,0,0,本科,40.76901,114.87891,河北省,张家口市,桥东区
189,河北师范大学汇华学院,1,0,2,0,0,0,0,0,本科,37.99018,114.46883,河北省,石家庄市,桥西区
190,河北经贸大学经济管理学院,1,0,2,0,0,0,0,0,本科,38.00679,114.45788,河北省,石家庄市,桥西区
191,河北医科大学临床学院,1,0,2,0,0,0,0,0,本科,38.01678,114.54859,河北省,石家庄市,裕华区
192,华北电力大学科技学院,1,0,2,0,0,0,0,0,本科,38.88665,115.48975,河北省,保定市,莲池区
193,河北工程大学科信学院,1,0,2,0,0,0,0,0,本科,36.57105,114.50666,河北省,邯郸市,邯郸县
194,河北工业大学城市学院,1,0,2,0,0,0,0,0,本科,39.54596,116.70688,河北省,廊坊市,广阳区
195,燕山大学里仁学院,1,0,2,0,0,0,0,0,本科,39.90644,119.52687,河北省,秦皇岛市,海港区
196,石家庄铁道大学四方学院,1,0,2,0,0,0,0,0,本科,37.88485,114.40987,河北省,石家庄市,元氏县
197,河北地质大学华信学院,1,0,2,0,0,0,0,0,本科,38.33201,114.7716,河北省,石家庄市,新乐市
198,河北农业大学现代科技学院,1,0,2,0,0,0,0,0,本科,38.82774,115.45061,河北省,保定市,莲池区
199,华北理工大学冀唐学院,1,0,2,0,0,0,0,0,本科,39.58424,118.0904,河北省,唐山市,丰南区
200,中国地质大学长城学院,1,0,2,0,0,0,0,0,本科,38.8157,115.48671,河北省,保定市,莲池区
201,燕京理工学院,1,0,2,0,0,0,0,0,本科,40.00052,116.80575,河北省,廊坊市,三河市
202,北京中医药大学东方学院,1,0,2,0,0,0,0,0,本科,39.90469,116.40717,北京市,北京市,东城区
203,北京交通大学海滨学院,1,0,2,0,0,0,0,0,本科,39.95092,116.34107,北京市,北京市,海淀区
204,河北东方学院,1,0,2,0,0,0,0,0,本科,19.11827,108.66501,海南省,东方市,东方市
205,河北中医学院,1,0,2,0,0,0,0,0,本科,38.05578,114.34651,河北省,石家庄市,鹿泉区
206,张家口学院,1,0,2,0,0,0,0,0,本科,40.84316,114.86905,河北省,张家口市,桥西区
207,河北环境工程学院,1,0,2,0,0,0,0,0,本科,39.8671,119.45369,河北省,秦皇岛市,北戴河区
208,河北工业职业技术学院,1,1,0,0,0,0,0,0,专科,38.01437,114.46107,河北省,石家庄市,桥西区
209,邯郸职业技术学院,1,1,0,0,0,0,0,0,专科,36.58366,114.50992,河北省,邯郸市,邯山区
210,石家庄职业技术学院,1,1,0,0,0,0,0,0,专科,38.04591,114.40716,河北省,石家庄市,桥西区
211,张家口职业技术学院,1,1,0,0,0,0,0,0,专科,40.73329,114.91556,河北省,张家口市,桥东区
212,承德石油高等专科学校,1,1,0,0,0,0,0,0,专科,40.89815,117.96212,河北省,承德市,双桥区
213,邢台职业技术学院,1,1,0,0,0,0,0,0,专科,37.0847,114.46032,河北省,邢台市,桥西区
214,河北软件职业技术学院,1,1,0,0,0,0,0,0,专科,38.86757,115.54469,河北省,保定市,莲池区
215,河北石油职业技术学院,1,1,0,0,0,0,0,0,专科,39.52403,116.67592,河北省,廊坊市,安次区
216,河北建材职业技术学院,1,1,0,0,0,0,0,0,专科,39.91195,119.55951,河北省,秦皇岛市,海港区
217,河北政法职业学院,1,1,0,0,0,0,0,0,专科,38.13748,114.4618,河北省,石家庄市,新华区
218,沧州职业技术学院,1,1,0,0,0,0,0,0,专科,38.28178,116.82258,河北省,沧州市,运河区
219,河北能源职业技术学院,1,1,0,0,0,0,0,0,专科,39.63201,118.12648,河北省,唐山市,路北区
220,石家庄铁路职业技术学院,1,1,0,0,0,0,0,0,专科,38.08907,114.5266,河北省,石家庄市,长安区
221,保定职业技术学院,1,1,0,0,0,0,0,0,专科,38.85993,115.47038,河北省,保定市,竞秀区
222,秦皇岛职业技术学院,1,1,0,0,0,0,0,0,专科,39.83687,119.48137,河北省,秦皇岛市,北戴河区
223,石家庄工程职业学院,1,1,0,0,0,0,0,0,专科,38.1715,114.43871,河北省,石家庄市,鹿泉区
224,石家庄城市经济职业学院,1,1,0,0,0,0,0,0,专科,38.04506,114.69844,河北省,石家庄市,藁城区
225,唐山职业技术学院,1,1,0,0,0,0,0,0,专科,39.62432,118.13324,河北省,唐山市,路北区
226,衡水职业技术学院,1,1,0,0,0,0,0,0,专科,37.69902,115.68139,河北省,衡水市,桃城区
227,唐山工业职业技术学院,1,1,0,0,0,0,0,0,专科,39.66214,118.21231,河北省,唐山市,路北区
228,邢台医学高等专科学校,1,1,0,0,0,0,0,0,专科,37.08891,114.46182,河北省,邢台市,桥西区
229,河北省艺术职业学院,1,1,0,0,0,0,0,0,专科,38.03741,114.51807,河北省,石家庄市,长安区
230,河北旅游职业学院,1,1,0,0,0,0,0,0,专科,40.90254,117.95303,河北省,承德市,双桥区
231,石家庄财经职业学院,1,1,0,0,0,0,0,0,专科,38.16882,114.43783,河北省,石家庄市,鹿泉区
232,河北交通职业技术学院,1,1,0,0,0,0,0,0,专科,38.01269,114.45087,河北省,石家庄市,桥西区
233,河北化工医药职业技术学院,1,1,0,0,0,0,0,0,专科,37.98946,114.60493,河北省,石家庄市,裕华区
234,石家庄信息工程职业学院,1,1,0,0,0,0,0,0,专科,37.99857,114.60465,河北省,石家庄市,裕华区
235,河北对外经贸职业学院,1,1,0,0,0,0,0,0,专科,39.80042,119.42712,河北省,秦皇岛市,抚宁区
236,保定电力职业技术学院,1,1,0,0,0,0,0,0,专科,38.85162,115.44988,河北省,保定市,竞秀区
237,河北机电职业技术学院,1,1,0,0,0,0,0,0,专科,37.09486,114.45799,河北省,邢台市,桥西区
238,渤海石油职业学院,1,1,0,0,0,0,0,0,专科,38.72084,116.13495,河北省,沧州市,任丘市
239,廊坊职业技术学院,1,1,0,0,0,0,0,0,专科,39.61419,116.73946,河北省,廊坊市,广阳区
240,唐山科技职业技术学院,1,1,0,0,0,0,0,0,专科,39.59887,118.23865,河北省,唐山市,路南区
241,石家庄邮电职业技术学院,1,1,0,0,0,0,0,0,专科,38.01807,114.53142,河北省,石家庄市,裕华区
242,河北公安警察职业学院,1,1,0,0,0,0,0,0,专科,37.99996,114.47147,河北省,石家庄市,桥西区
243,石家庄工商职业学院,1,1,0,0,0,0,0,0,专科,37.99485,114.47211,河北省,石家庄市,桥西区
244,石家庄理工职业学院,1,1,0,0,0,0,0,0,专科,38.05261,114.35144,河北省,石家庄市,鹿泉区
245,石家庄科技信息职业学院,1,1,0,0,0,0,0,0,专科,37.98909,114.46033,河北省,石家庄市,桥西区
246,河北司法警官职业学院,1,1,0,0,0,0,0,0,专科,38.03306,114.44663,河北省,石家庄市,桥西区
247,沧州医学高等专科学校,1,1,0,0,0,0,0,0,专科,38.28856,116.80265,河北省,沧州市,运河区
248,河北女子职业技术学院,1,1,0,0,0,0,0,0,专科,37.99956,114.4487,河北省,石家庄市,桥西区
249,石家庄医学高等专科学校,1,1,0,0,0,0,0,0,专科,38.26205,114.4181,河北省,石家庄市,灵寿县
250,石家庄经济职业学院,1,1,0,0,0,0,0,0,专科,38.14668,114.55309,河北省,石家庄市,正定县
251,冀中职业学院,1,1,0,0,0,0,0,0,专科,39.72146,116.16458,北京市,北京市,房山区
252,石家庄人民医学高等专科学校,1,1,0,0,0,0,0,0,专科,37.99309,114.4557,河北省,石家庄市,桥西区
253,石家庄科技工程职业学院,1,1,0,0,0,0,0,0,专科,38.15985,114.56723,河北省,石家庄市,正定县
254,河北劳动关系职业学院,1,1,0,0,0,0,0,0,专科,37.98847,114.45681,河北省,石家庄市,鹿泉区
255,石家庄科技职业学院,1,1,0,0,0,0,0,0,专科,38.03593,114.69265,河北省,石家庄市,藁城区
256,泊头职业学院,1,1,0,0,0,0,0,0,专科,38.07536,116.57047,河北省,沧州市,泊头市
257,宣化科技职业学院,1,1,0,0,0,0,0,0,专科,40.61984,115.05203,河北省,张家口市,宣化区
258,廊坊燕京职业技术学院,1,1,0,0,0,0,0,0,专科,39.97011,116.99068,河北省,廊坊市,三河市
259,承德护理职业学院,1,1,0,0,0,0,0,0,专科,40.95239,117.95198,河北省,承德市,双桥区
260,石家庄幼儿师范高等专科学校,1,1,0,0,0,0,0,0,专科,38.04569,114.3457,河北省,石家庄市,鹿泉区
261,廊坊卫生职业学院,1,1,0,0,0,0,0,0,专科,39.6088,116.7368,河北省,廊坊市,广阳区
262,河北轨道运输职业技术学院,1,1,0,0,0,0,0,0,专科,38.0187,114.70022,河北省,石家庄市,藁城区
263,保定幼儿师范高等专科学校,1,1,0,0,0,0,0,0,专科,39.26735,115.81039,河北省,保定市,定兴县
264,河北工艺美术职业学院,1,1,0,0,0,0,0,0,专科,38.94442,115.25692,河北省,保定市,满城区
265,渤海理工职业学院,1,1,0,0,0,0,0,0,专科,38.39092,117.31686,河北省,沧州市,黄骅市
266,唐山幼儿师范高等专科学校,1,1,0,0,0,0,0,0,专科,39.63048,118.18058,河北省,唐山市,路北区
267,山西大学,1,0,2,0,0,0,0,0,本科,37.80079,112.58679,山西省,太原市,小店区
268,太原科技大学,1,0,2,0,0,0,0,0,本科,37.87568,112.49176,山西省,太原市,万柏林区
269,中北大学,1,0,2,0,0,0,0,0,本科,38.01135,112.44299,山西省,太原市,尖草坪区
270,太原理工大学,1,0,2,3,3,0,0,0,本科,37.85382,112.52455,山西省,太原市,万柏林区
271,山西农业大学,1,0,2,0,0,0,0,0,本科,37.45098,112.57287,山西省,晋中市,太谷县
272,山西医科大学,1,0,2,0,0,0,0,0,本科,37.28234,111.79046,山西省,吕梁市,汾阳市
273,长治医学院,1,0,2,0,0,0,0,0,本科,36.17276,113.11725,山西省,长治市,城区
274,山西师范大学,1,0,2,0,0,0,0,0,本科,36.0839,111.54989,山西省,临汾市,尧都区
275,太原师范学院,1,0,2,0,0,0,0,0,本科,37.84097,112.56944,山西省,太原市,迎泽区
276,山西大同大学,1,0,2,0,0,0,0,0,本科,40.09153,113.35493,山西省,大同市,南郊区
277,晋中学院,1,0,2,0,0,0,0,0,本科,37.74104,112.72126,山西省,晋中市,榆次区
278,长治学院,1,0,2,0,0,0,0,0,本科,36.21033,113.13644,山西省,长治市,城区
279,运城学院,1,0,2,0,0,0,0,0,本科,35.12236,110.93255,山西省,运城市,盐湖区
280,忻州师范学院,1,0,2,0,0,0,0,0,本科,38.42991,112.72755,山西省,忻州市,忻府区
281,山西财经大学,1,0,2,0,0,0,0,0,本科,37.79049,112.58754,山西省,太原市,小店区
282,山西中医学院,1,0,2,0,0,0,0,0,本科,37.74581,112.73223,山西省,晋中市,榆次区
283,吕梁学院,1,0,2,0,0,0,0,0,本科,37.57991,111.14698,山西省,吕梁市,离石区
284,太原学院,1,0,2,0,0,0,0,0,本科,37.69476,112.60829,山西省,太原市,小店区
285,山西警察学院,1,0,2,0,0,0,0,0,本科,37.82768,112.52423,山西省,太原市,万柏林区
286,山西应用科技学院,1,0,2,0,0,0,0,0,本科,37.77748,112.60647,山西省,太原市,小店区
287,山西大学商务学院,1,0,2,0,0,0,0,0,本科,37.74333,112.66603,山西省,晋中市,榆次区
288,太原理工大学现代科技学院,1,0,2,0,0,0,0,0,本科,37.87059,112.55067,山西省,太原市,杏花岭区
289,山西农业大学信息学院,1,0,2,0,0,0,0,0,本科,37.45098,112.57287,山西省,晋中市,太谷县
290,山西师范大学现代文理学院,1,0,2,0,0,0,0,0,本科,36.0839,111.54989,山西省,临汾市,尧都区
291,中北大学信息商务学院,1,0,2,0,0,0,0,0,本科,37.67407,112.64038,山西省,晋中市,榆次区
292,太原科技大学华科学院,1,0,2,0,0,0,0,0,本科,37.79753,112.50881,山西省,太原市,晋源区
293,山西医科大学晋祠学院,1,0,2,0,0,0,0,0,本科,37.68519,112.42925,山西省,太原市,晋源区
294,山西财经大学华商学院,1,0,2,0,0,0,0,0,本科,37.76973,112.58087,山西省,太原市,小店区
295,山西工商学院,1,0,2,0,0,0,0,0,本科,37.7668,112.57934,山西省,太原市,小店区
296,太原工业学院,1,0,2,0,0,0,0,0,本科,37.95699,112.5395,山西省,太原市,尖草坪区
297,山西传媒学院,1,0,2,0,0,0,0,0,本科,37.74153,112.73155,山西省,晋中市,榆次区
298,山西工程技术学院,1,0,2,0,0,0,0,0,本科,37.880515,113.606096,山西省,阳泉市,郊区
299,山西能源学院,1,0,2,0,0,0,0,0,本科,37.75215,112.7358,山西省,晋中市,榆次区
300,山西省财政税务专科学校,1,1,0,0,0,0,0,0,专科,37.85481,112.51862,山西省,太原市,万柏林区
301,长治职业技术学院,1,1,0,0,0,0,0,0,专科,36.2156,113.13168,山西省,长治市,城区
302,山西艺术职业学院,1,1,0,0,0,0,0,0,专科,37.85204,112.57361,山西省,太原市,迎泽区
303,晋城职业技术学院,1,1,0,0,0,0,0,0,专科,35.48893,112.87295,山西省,晋城市,城区
304,山西建筑职业技术学院,1,1,0,0,0,0,0,0,专科,37.7417,112.7043,山西省,晋中市,榆次区
305,山西药科职业学院,1,1,0,0,0,0,0,0,专科,37.77591,112.6531,山西省,太原市,小店区
306,山西工程职业技术学院,1,1,0,0,0,0,0,0,专科,37.8808,112.54979,山西省,太原市,杏花岭区
307,山西交通职业技术学院,1,1,0,0,0,0,0,0,专科,37.74116,112.70936,山西省,晋中市,榆次区
308,大同煤炭职业技术学院,1,1,0,0,0,0,0,0,专科,40.02287,113.18386,山西省,大同市,南郊区
309,山西机电职业技术学院,1,1,0,0,0,0,0,0,专科,36.26233,113.17009,山西省,长治市,潞城市
310,山西戏剧职业学院,1,1,0,0,0,0,0,0,专科,37.87106,112.55761,山西省,太原市,杏花岭区
311,山西财贸职业技术学院,1,1,0,0,0,0,0,0,专科,37.77536,112.65638,山西省,太原市,小店区
312,山西林业职业技术学院,1,1,0,0,0,0,0,0,专科,37.89454,112.53991,山西省,太原市,尖草坪区
313,山西水利职业技术学院,1,1,0,0,0,0,0,0,专科,35.05363,111.0343,山西省,运城市,盐湖区
314,阳泉职业技术学院,1,1,0,0,0,0,0,0,专科,37.87412,113.5792,山西省,阳泉市,郊区
315,临汾职业技术学院,1,1,0,0,0,0,0,0,专科,36.05979,111.61543,山西省,临汾市,尧都区
316,山西职业技术学院,1,1,0,0,0,0,0,0,专科,37.69022,112.71593,山西省,晋中市,榆次区
317,山西煤炭职业技术学院,1,1,0,0,0,0,0,0,专科,40.02287,113.18386,山西省,大同市,矿区
318,山西金融职业学院,1,1,0,0,0,0,0,0,专科,37.95486,112.52975,山西省,太原市,尖草坪区
319,太原城市职业技术学院,1,1,0,0,0,0,0,0,专科,37.88975,112.52804,山西省,太原市,尖草坪区
320,山西信息职业技术学院,1,1,0,0,0,0,0,0,专科,36.12356,111.54303,山西省,临汾市,尧都区
321,山西体育职业学院,1,1,0,0,0,0,0,0,专科,37.81278,112.56976,山西省,太原市,小店区
322,山西警官职业学院,1,1,0,0,0,0,0,0,专科,37.82236,112.59578,山西省,太原市,迎泽区
323,山西国际商务职业学院,1,1,0,0,0,0,0,0,专科,37.81045,112.60067,山西省,太原市,小店区
324,潞安职业技术学院,1,1,0,0,0,0,0,0,专科,36.3955,113.08663,山西省,长治市,郊区
325,太原旅游职业学院,1,1,0,0,0,0,0,0,专科,37.83145,112.58141,山西省,太原市,小店区
326,山西旅游职业学院,1,1,0,0,0,0,0,0,专科,37.80359,112.62004,山西省,太原市,小店区
327,山西管理职业学院,1,1,0,0,0,0,0,0,专科,36.14056,111.5061,山西省,临汾市,尧都区
328,山西电力职业技术学院,1,1,0,0,0,0,0,0,专科,37.778,112.48958,山西省,太原市,晋源区
329,忻州职业技术学院,1,1,0,0,0,0,0,0,专科,38.47093,112.73428,山西省,忻州市,忻府区
330,山西同文职业技术学院,1,1,0,0,0,0,0,0,专科,民办,0,,,
331,晋中职业技术学院,1,1,0,0,0,0,0,0,专科,37.69022,112.71593,山西省,晋中市,榆次区
332,山西华澳商贸职业学院,1,1,0,0,0,0,0,0,专科,37.6723,112.6399,山西省,晋中市,榆次区
333,山西运城农业职业技术学院,1,1,0,0,0,0,0,0,专科,35.02015,111.00068,山西省,运城市,盐湖区
334,运城幼儿师范高等专科学校,1,1,0,0,0,0,0,0,专科,35.09771,111.06394,山西省,运城市,盐湖区
335,山西老区职业技术学院,1,1,0,0,0,0,0,0,专科,37.90187,112.51327,山西省,太原市,尖草坪区
336,山西经贸职业学院,1,1,0,0,0,0,0,0,专科,37.728,112.44852,山西省,太原市,晋源区
337,朔州职业技术学院,1,1,0,0,0,0,0,0,专科,39.3028,112.40953,山西省,朔州市,朔城区
338,运城职业技术学院,1,1,0,0,0,0,0,0,专科,35.07236,111.00497,山西省,运城市,盐湖区
339,山西轻工职业技术学院,1,1,0,0,0,0,0,0,专科,37.88013,112.61392,山西省,太原市,杏花岭区
340,晋中师范高等专科学校,1,1,0,0,0,0,0,0,专科,37.72566,112.73434,山西省,晋中市,榆次区
341,阳泉师范高等专科学校,1,1,0,0,0,0,0,0,专科,37.80292,113.61952,山西省,阳泉市,平定县
342,山西青年职业学院,1,1,0,0,0,0,0,0,专科,37.69776,112.60065,山西省,太原市,小店区
343,运城护理职业学院,1,1,0,0,0,0,0,0,专科,35.1171,110.92427,山西省,运城市,盐湖区
344,运城师范高等专科学校,1,1,0,0,0,0,0,0,专科,35.12918,110.91906,山西省,运城市,盐湖区
345,朔州师范高等专科学校,1,1,0,0,0,0,0,0,专科,39.37332,112.45704,山西省,朔州市,朔城区
346,吕梁职业技术学院,1,1,0,0,0,0,0,0,专科,37.1179,111.77179,山西省,吕梁市,孝义市
347,内蒙古大学,1,0,2,3,3,0,0,0,本科,49.60352,117.4215,内蒙古自治区,呼伦贝尔市,满洲里市
348,内蒙古科技大学,1,0,2,0,0,0,0,0,本科,40.62037,109.83398,内蒙古自治区,包头市,昆都仑区
349,内蒙古工业大学,1,0,2,0,0,0,0,0,本科,40.84465,111.68209,内蒙古自治区,呼和浩特市,新城区
350,内蒙古农业大学,1,0,2,0,0,0,0,0,本科,40.80578,111.70231,内蒙古自治区,呼和浩特市,赛罕区
351,内蒙古医科大学,1,0,2,0,0,0,0,0,本科,40.74329,111.43818,内蒙古自治区,呼和浩特市,土默特左旗
352,内蒙古师范大学,1,0,2,0,0,0,0,0,本科,40.80461,111.69671,内蒙古自治区,呼和浩特市,赛罕区
353,内蒙古民族大学,1,0,2,0,0,0,0,0,本科,43.62889,122.25379,内蒙古自治区,通辽市,科尔沁区
354,赤峰学院,1,0,2,0,0,0,0,0,本科,42.24292,118.91751,内蒙古自治区,赤峰市,红山区
355,内蒙古财经大学,1,0,2,0,0,0,0,0,本科,40.85438,111.63263,内蒙古自治区,呼和浩特市,回民区
356,呼伦贝尔学院,1,0,2,0,0,0,0,0,本科,49.20043,119.77892,内蒙古自治区,呼伦贝尔市,海拉尔区
357,集宁师范学院,1,0,2,0,0,0,0,0,本科,41.01011,113.14401,内蒙古自治区,乌兰察布市,集宁区
358,河套学院,1,0,2,0,0,0,0,0,本科,40.77129,107.44067,内蒙古自治区,巴彦淖尔市,临河区
359,呼和浩特民族学院,1,0,2,0,0,0,0,0,本科,40.84346,111.65888,内蒙古自治区,呼和浩特市,新城区
360,内蒙古大学创业学院,1,0,2,0,0,0,0,0,本科,40.759833,111.671347,内蒙古自治区,呼和浩特市,玉泉区
361,内蒙古师范大学鸿德学院,1,0,2,0,0,0,0,0,本科,40.85057,111.78039,内蒙古自治区,呼和浩特市,新城区
362,内蒙古艺术学院,1,0,2,0,0,0,0,0,本科,40.82808,111.7059,内蒙古自治区,呼和浩特市,赛罕区
363,鄂尔多斯应用技术学院,1,0,2,0,0,0,0,0,本科,39.60985,109.82174,内蒙古自治区,鄂尔多斯市,东胜区
364,内蒙古建筑职业技术学院,1,1,0,0,0,0,0,0,专科,40.87404,111.63541,内蒙古自治区,呼和浩特市,回民区
365,内蒙古丰州职业学院,1,1,0,0,0,0,0,0,专科,40.8936,111.83977,内蒙古自治区,呼和浩特市,赛罕区
366,包头职业技术学院,1,1,0,0,0,0,0,0,专科,40.64364,109.95238,内蒙古自治区,包头市,青山区
367,兴安职业技术学院,1,1,0,0,0,0,0,0,专科,46.10505,122.02505,内蒙古自治区,兴安盟,乌兰浩特市
368,呼和浩特职业学院,1,1,0,0,0,0,0,0,专科,40.900114,111.845968,内蒙古自治区,呼和浩特市,赛罕区
369,包头轻工职业技术学院,1,1,0,0,0,0,0,0,专科,40.6368,109.94772,内蒙古自治区,包头市,青山区
370,内蒙古电子信息职业技术学院,1,1,0,0,0,0,0,0,专科,40.89762,111.85058,内蒙古自治区,呼和浩特市,赛罕区
371,内蒙古机电职业技术学院,1,1,0,0,0,0,0,0,专科,40.90527,111.84663,内蒙古自治区,呼和浩特市,赛罕区
372,内蒙古化工职业学院,1,1,0,0,0,0,0,0,专科,40.90678,111.85205,内蒙古自治区,呼和浩特市,赛罕区
373,内蒙古商贸职业学院,1,1,0,0,0,0,0,0,专科,40.89853,111.85887,内蒙古自治区,呼和浩特市,赛罕区
374,锡林郭勒职业学院,1,1,0,0,0,0,0,0,专科,43.92521,116.03071,内蒙古自治区,锡林郭勒盟,锡林浩特市
375,内蒙古警察职业学院,1,1,0,0,0,0,0,0,专科,40.87071,111.69587,内蒙古自治区,呼和浩特市,新城区
376,内蒙古体育职业学院,1,1,0,0,0,0,0,0,专科,40.857197,111.674293,内蒙古自治区,呼和浩特市,新城区
377,乌兰察布职业学院,1,1,0,0,0,0,0,0,专科,40.97521,113.17922,内蒙古自治区,乌兰察布市,察哈尔右翼前旗
378,通辽职业学院,1,1,0,0,0,0,0,0,专科,43.68097,122.25033,内蒙古自治区,通辽市,科尔沁区
379,科尔沁艺术职业学院,1,1,0,0,0,0,0,0,专科,43.67944,122.24871,内蒙古自治区,通辽市,科尔沁区
380,内蒙古交通职业技术学院,1,1,0,0,0,0,0,0,专科,42.27145,118.89246,内蒙古自治区,赤峰市,松山区
381,包头钢铁职业技术学院,1,1,0,0,0,0,0,0,专科,40.62442,109.83594,内蒙古自治区,包头市,昆都仑区
382,乌海职业技术学院,1,1,0,0,0,0,0,0,专科,39.64947,106.79057,内蒙古自治区,乌海市,海勃湾区
383,内蒙古科技职业学院,1,1,0,0,0,0,0,0,专科,40.89899,111.84705,内蒙古自治区,呼和浩特市,赛罕区
384,内蒙古北方职业技术学院,1,1,0,0,0,0,0,0,专科,40.8972,111.84538,内蒙古自治区,呼和浩特市,赛罕区
385,赤峰职业技术学院,1,1,0,0,0,0,0,0,专科,42.28151,118.88964,内蒙古自治区,赤峰市,松山区
386,内蒙古经贸外语职业学院,1,1,0,0,0,0,0,0,专科,40.89415,111.69863,内蒙古自治区,呼和浩特市,新城区
387,包头铁道职业技术学院,1,1,0,0,0,0,0,0,专科,40.65385,110.00244,内蒙古自治区,包头市,九原区
388,乌兰察布医学高等专科学校,1,1,0,0,0,0,0,0,专科,40.98035,113.16819,内蒙古自治区,乌兰察布市,察哈尔右翼前旗
389,鄂尔多斯职业学院,1,1,0,0,0,0,0,0,专科,39.61827,109.81964,内蒙古自治区,鄂尔多斯市,东胜区
390,内蒙古工业职业学院,1,1,0,0,0,0,0,0,专科,40.49753,111.7991,内蒙古自治区,呼和浩特市,和林格尔县
391,呼伦贝尔职业技术学院,1,1,0,0,0,0,0,0,专科,49.17705,119.74183,内蒙古自治区,呼伦贝尔市,鄂温克族自治旗
392,满洲里俄语职业学院,1,1,0,0,0,0,0,0,专科,49.60354,117.42146,内蒙古自治区,呼伦贝尔市,满洲里市
393,内蒙古能源职业学院,1,1,0,0,0,0,0,0,专科,40.43655,113.16411,内蒙古自治区,乌兰察布市,丰镇市
394,赤峰工业职业技术学院,1,1,0,0,0,0,0,0,专科,42.27177,118.87329,内蒙古自治区,赤峰市,松山区
395,阿拉善职业技术学院,1,1,0,0,0,0,0,0,专科,38.84586,105.69817,内蒙古自治区,阿拉善盟,阿拉善左旗
396,内蒙古美术职业学院,1,1,0,0,0,0,0,0,专科,41.09633,108.27753,内蒙古自治区,巴彦淖尔市,五原县
397,内蒙古民族幼儿师范高等专科学校,1,1,0,0,0,0,0,0,专科,39.81495,109.90812,内蒙古自治区,鄂尔多斯市,东胜区
398,鄂尔多斯生态环境职业学院,1,1,0,0,0,0,0,0,专科,39.62604,109.82986,内蒙古自治区,鄂尔多斯市,东胜区
399,扎兰屯职业学院,1,1,0,0,0,0,0,0,专科,48.0331,122.73693,内蒙古自治区,呼伦贝尔市,扎兰屯市
400,辽宁大学,1,0,2,3,3,0,0,0,本科,41.83362,123.40607,辽宁省,沈阳市,皇姑区
401,大连理工大学,1,0,2,3,3,0,0,3,本科,38.88261,121.52967,辽宁省,大连市,甘井子区
402,沈阳工业大学,1,0,2,0,0,0,0,0,本科,41.737,123.25002,辽宁省,沈阳市,于洪区
403,沈阳航空航天大学,1,0,2,0,0,0,0,0,本科,41.92599,123.40508,辽宁省,沈阳市,沈北新区
404,沈阳理工大学,1,0,2,0,0,0,0,0,本科,41.72684,123.49122,辽宁省,沈阳市,浑南区
405,东北大学,1,0,2,3,3,0,0,3,本科,41.76523,123.41938,辽宁省,沈阳市,和平区
406,辽宁科技大学,1,0,2,0,0,0,0,0,本科,41.10431,123.06053,辽宁省,鞍山市,立山区
407,辽宁工程技术大学,1,0,2,0,0,0,0,0,本科,40.62325,120.78014,辽宁省,葫芦岛市,兴城市
408,辽宁石油化工大学,1,0,2,0,0,0,0,0,本科,41.85887,123.79078,辽宁省,抚顺市,望花区
409,沈阳化工大学,1,0,2,0,0,0,0,0,本科,41.74762,123.23536,辽宁省,沈阳市,于洪区
410,大连交通大学,1,0,2,0,0,0,0,0,本科,38.91149,121.57049,辽宁省,大连市,沙河口区
411,大连海事大学,1,0,2,3,3,0,0,0,本科,38.91369,121.61476,辽宁省,大连市,西岗区
412,大连工业大学,1,0,2,0,0,0,0,0,本科,38.97109,121.52793,辽宁省,大连市,甘井子区
413,沈阳建筑大学,1,0,2,0,0,0,0,0,本科,41.74382,123.51516,辽宁省,沈阳市,浑南区
414,辽宁工业大学,1,0,2,0,0,0,0,0,本科,38.97109,121.52793,辽宁省,大连市,甘井子区
415,沈阳农业大学,1,0,2,0,0,0,0,0,本科,41.82766,123.56793,辽宁省,沈阳市,浑南区
416,大连海洋大学,1,0,2,0,0,0,0,0,本科,38.86827,121.55508,辽宁省,大连市,沙河口区
417,中国医科大学,1,0,2,0,0,0,0,0,本科,41.79528,123.40978,辽宁省,沈阳市,和平区
418,锦州医科大学,1,0,2,0,0,0,0,0,本科,41.09515,121.12703,辽宁省,锦州市,太和区
419,大连医科大学,1,0,2,0,0,0,0,0,本科,38.80556,121.31547,辽宁省,大连市,旅顺口区
420,辽宁中医药大学,1,0,2,0,0,0,0,0,本科,41.833818,123.429125,辽宁省,沈阳市,皇姑区
421,沈阳药科大学,1,0,2,0,0,0,0,0,本科,41.76905,123.44607,辽宁省,沈阳市,沈河区
422,沈阳医学院,1,0,2,0,0,0,0,0,本科,41.88855,123.40962,辽宁省,沈阳市,于洪区
423,辽宁师范大学,1,0,2,0,0,0,0,0,本科,38.91456,121.56468,辽宁省,大连市,沙河口区
424,沈阳师范大学,1,0,2,0,0,0,0,0,本科,41.90819,123.41474,辽宁省,沈阳市,沈北新区
425,渤海大学,1,0,2,0,0,0,0,0,本科,41.08671,121.11909,辽宁省,锦州市,太和区
426,鞍山师范学院,1,0,2,0,0,0,0,0,本科,41.0769,122.99445,辽宁省,鞍山市,铁东区
427,大连外国语大学,1,0,2,0,0,0,0,0,本科,38.91369,121.61476,辽宁省,大连市,西岗区
428,东北财经大学,1,0,2,0,0,0,0,0,本科,39.08595,121.83034,辽宁省,大连市,金州区
429,中国刑事警察学院,1,0,2,0,0,0,0,0,本科,41.84242,123.38014,辽宁省,沈阳市,皇姑区
430,沈阳体育学院,1,0,2,0,0,0,0,0,本科,41.67393,123.38834,辽宁省,沈阳市,苏家屯区
431,沈阳音乐学院,1,0,2,0,0,0,0,0,本科,41.769375,123.42795,辽宁省,沈阳市,和平区
432,鲁迅美术学院,1,0,2,0,0,0,0,0,本科,41.77674,123.43082,辽宁省,沈阳市,和平区
433,辽宁对外经贸学院,1,0,2,0,0,0,0,0,本科,38.81959,121.15501,辽宁省,大连市,旅顺口区
434,沈阳大学,1,0,2,0,0,0,0,0,本科,41.82623,123.46049,辽宁省,沈阳市,大东区
435,大连大学,1,0,2,0,0,0,0,0,本科,39.10041,121.82194,辽宁省,大连市,金州区
436,辽宁科技学院,1,0,2,0,0,0,0,0,本科,38.78386,121.15396,辽宁省,大连市,旅顺口区
437,辽宁警察学院,1,0,2,0,0,0,0,0,本科,41.10374,123.07242,辽宁省,鞍山市,立山区
438,沈阳工程学院,1,0,2,0,0,0,0,0,本科,41.9193,123.41897,辽宁省,沈阳市,沈北新区
439,辽东学院,1,0,2,0,0,0,0,0,本科,40.17744,124.36362,辽宁省,丹东市,元宝区
440,大连民族大学,1,0,2,0,0,0,0,0,本科,39.04568,121.77494,辽宁省,大连市,金州区
441,大连理工大学城市学院,1,0,2,0,0,0,0,0,本科,39.07163,121.76941,辽宁省,大连市,金州区
442,沈阳工业大学工程学院,1,0,2,0,0,0,0,0,本科,41.737,123.25002,辽宁省,沈阳市,于洪区
443,沈阳航空航天大学北方科技学院,1,0,2,0,0,0,0,0,本科,41.93018,123.46716,辽宁省,沈阳市,沈北新区
444,沈阳工学院,1,0,2,0,0,0,0,0,本科,41.67724,123.46436,辽宁省,沈阳市,浑南区
445,大连工业大学艺术与信息工程学院,1,0,2,0,0,0,0,0,本科,38.97109,121.52793,辽宁省,大连市,甘井子区
446,大连科技学院,1,0,2,0,0,0,0,0,本科,38.78386,121.15396,辽宁省,大连市,旅顺口区
447,沈阳城市建设学院,1,0,2,0,0,0,0,0,本科,41.67412,123.4199,辽宁省,沈阳市,浑南区
448,中国医科大学临床医药学院,1,0,2,0,0,0,0,0,本科,41.7981,123.41263,辽宁省,沈阳市,和平区
449,大连医科大学中山学院,1,0,2,0,0,0,0,0,本科,38.85418,121.51341,辽宁省,大连市,甘井子区
450,锦州医科大学医疗学院,1,0,2,0,0,0,0,0,本科,41.0826,121.11562,辽宁省,锦州市,太和区
451,辽宁师范大学海华学院,1,0,2,0,0,0,0,0,本科,41.67922,123.40469,辽宁省,沈阳市,浑南区
452,辽宁理工学院,1,0,2,0,0,0,0,0,本科,41.08147,121.12181,辽宁省,锦州市,太和区
453,大连财经学院,1,0,2,0,0,0,0,0,本科,39.08595,121.83034,辽宁省,大连市,金州区
454,沈阳城市学院,1,0,2,0,0,0,0,0,本科,41.6245,123.53616,辽宁省,沈阳市,苏家屯区
455,辽宁科技大学信息技术学院,1,0,2,0,0,0,0,0,本科,41.10365,123.04459,辽宁省,鞍山市,立山区
456,辽宁石油化工大学顺华能源学院,1,0,2,0,0,0,0,0,本科,41.85128,123.78362,辽宁省,抚顺市,望花区
457,大连艺术学院,1,0,2,0,0,0,0,0,本科,39.09462,121.83421,辽宁省,大连市,金州区
458,辽宁中医药大学杏林学院,1,0,2,0,0,0,0,0,本科,41.67767,123.41912,辽宁省,沈阳市,浑南区
459,辽宁何氏医学院,1,0,2,0,0,0,0,0,本科,41.91451,123.72083,辽宁省,沈阳市,浑南区
460,沈阳科技学院,1,0,2,0,0,0,0,0,本科,41.68227,123.40345,辽宁省,沈阳市,浑南区
461,大连东软信息学院,1,0,2,0,0,0,0,0,本科,38.89061,121.53528,辽宁省,大连市,甘井子区
462,辽宁财贸学院,1,0,2,0,0,0,0,0,本科,40.62156,120.79443,辽宁省,葫芦岛市,兴城市
463,辽宁传媒学院,1,0,2,0,0,0,0,0,本科,41.92373,123.41618,辽宁省,沈阳市,沈北新区
464,营口理工学院,1,0,2,0,0,0,0,0,本科,40.628851,122.243768,辽宁省,营口市,老边区
465,朝阳师范高等专科学校,1,1,0,0,0,0,0,0,专科,41.53343,120.4326,辽宁省,朝阳市,朝阳县
466,抚顺师范高等专科学校,1,1,0,0,0,0,0,0,专科,41.78793,123.69515,辽宁省,抚顺市,望花区
467,锦州师范高等专科学校,1,1,0,0,0,0,0,0,专科,41.14123,121.15588,辽宁省,锦州市,太和区
468,营口职业技术学院,1,1,0,0,0,0,0,0,专科,40.65456,122.25132,辽宁省,营口市,站前区
469,铁岭师范高等专科学校,1,1,0,0,0,0,0,0,专科,42.25018,123.74612,辽宁省,铁岭市,铁岭县
470,大连职业技术学院,1,1,0,0,0,0,0,0,专科,39.02194,121.48923,辽宁省,大连市,甘井子区
471,辽宁农业职业技术学院,1,1,0,0,0,0,0,0,专科,40.18412,122.15321,辽宁省,营口市,鲅鱼圈区
472,抚顺职业技术学院,1,1,0,0,0,0,0,0,专科,41.78446,123.69321,辽宁省,抚顺市,望花区
473,辽阳职业技术学院,1,1,0,0,0,0,0,0,专科,41.28895,123.16276,辽宁省,辽阳市,太子河区
474,阜新高等专科学校,1,1,0,0,0,0,0,0,专科,41.99705,121.63134,辽宁省,阜新市,海州区
475,辽宁省交通高等专科学校,1,1,0,0,0,0,0,0,专科,41.93651,123.51178,辽宁省,沈阳市,沈北新区
476,辽宁税务高等专科学校,1,1,0,0,0,0,0,0,专科,38.87937,121.54583,辽宁省,大连市,沙河口区
477,盘锦职业技术学院,1,1,0,0,0,0,0,0,专科,40.72807,122.10597,辽宁省,盘锦市,大洼区
478,沈阳航空职业技术学院,1,1,0,0,0,0,0,0,专科,41.87017,123.4287,辽宁省,沈阳市,皇姑区
479,辽宁体育运动职业技术学院,1,1,0,0,0,0,0,0,专科,41.74574,123.46542,辽宁省,沈阳市,浑南区
480,辽宁职业学院,1,1,0,0,0,0,0,0,专科,42.30607,123.89318,辽宁省,铁岭市,银州区
481,辽宁林业职业技术学院,1,1,0,0,0,0,0,0,专科,41.65853,123.32417,辽宁省,沈阳市,苏家屯区
482,沈阳职业技术学院,1,1,0,0,0,0,0,0,专科,41.8706,123.49891,辽宁省,沈阳市,大东区
483,辽宁理工职业学院,1,1,0,0,0,0,0,0,专科,40.85805,121.0729,辽宁省,锦州市,太和区
484,大连商务职业学院,1,1,0,0,0,0,0,0,专科,39.08034,121.74028,辽宁省,大连市,金州区
485,辽宁金融职业学院,1,1,0,0,0,0,0,0,专科,41.93897,123.51835,辽宁省,沈阳市,沈北新区
486,辽宁轨道交通职业学院,1,1,0,0,0,0,0,0,专科,41.82791,123.39975,辽宁省,沈阳市,皇姑区
487,辽宁广告职业学院,1,1,0,0,0,0,0,0,专科,41.91927,123.34928,辽宁省,沈阳市,于洪区
488,辽宁机电职业技术学院,1,1,0,0,0,0,0,0,专科,40.0149,124.34745,辽宁省,丹东市,振兴区
489,辽宁经济职业技术学院,1,1,0,0,0,0,0,0,专科,41.93785,123.49255,辽宁省,沈阳市,沈北新区
490,辽宁石化职业技术学院,1,1,0,0,0,0,0,0,专科,41.13593,121.1217,辽宁省,锦州市,古塔区
491,渤海船舶职业学院,1,1,0,0,0,0,0,0,专科,40.63215,120.7779,辽宁省,葫芦岛市,兴城市
492,大连软件职业学院,1,1,0,0,0,0,0,0,专科,38.93558,121.49767,辽宁省,大连市,甘井子区
493,大连翻译职业学院,1,1,0,0,0,0,0,0,专科,39.06766,121.75712,辽宁省,大连市,金州区
494,辽宁商贸职业学院,1,1,0,0,0,0,0,0,专科,41.82457,123.54458,辽宁省,沈阳市,沈河区
495,大连枫叶职业技术学院,1,1,0,0,0,0,0,0,专科,38.96182,121.30764,辽宁省,大连市,甘井子区
496,辽宁装备制造职业技术学院,1,1,0,0,0,0,0,0,专科,41.91059,123.59311,辽宁省,沈阳市,沈北新区
497,辽河石油职业技术学院,1,1,0,0,0,0,0,0,专科,41.13386,122.11666,辽宁省,盘锦市,兴隆台区
498,辽宁地质工程职业学院,1,1,0,0,0,0,0,0,专科,40.06172,124.32437,辽宁省,丹东市,振兴区
499,辽宁铁道职业技术学院,1,1,0,0,0,0,0,0,专科,41.14457,121.15004,辽宁省,锦州市,太和区
500,辽宁建筑职业学院,1,1,0,0,0,0,0,0,专科,41.25559,123.16424,辽宁省,辽阳市,白塔区
501,大连航运职业技术学院,1,1,0,0,0,0,0,0,专科,38.79744,121.15737,辽宁省,大连市,旅顺口区
502,大连装备制造职业技术学院,1,1,0,0,0,0,0,0,专科,39.20231,121.70584,辽宁省,大连市,金州区
503,大连汽车职业技术学院,1,1,0,0,0,0,0,0,专科,39.14684,121.70523,辽宁省,大连市,金州区
504,辽宁现代服务职业技术学院,1,1,0,0,0,0,0,0,专科,41.93332,123.59068,辽宁省,沈阳市,沈北新区
505,辽宁冶金职业技术学院,1,1,0,0,0,0,0,0,专科,41.29017,123.79218,辽宁省,本溪市,明山区
506,辽宁工程职业学院,1,1,0,0,0,0,0,0,专科,42.24264,123.74965,辽宁省,铁岭市,铁岭县
507,辽宁城市建设职业技术学院,1,1,0,0,0,0,0,0,专科,41.94572,123.49146,辽宁省,沈阳市,沈北新区
508,辽宁医药职业学院,1,1,0,0,0,0,0,0,专科,41.67752,123.35355,辽宁省,沈阳市,苏家屯区
509,铁岭卫生职业学院,1,1,0,0,0,0,0,0,专科,42.24743,123.74733,辽宁省,铁岭市,铁岭县
510,沈阳北软信息职业技术学院,1,1,0,0,0,0,0,0,专科,41.92834,123.45577,辽宁省,沈阳市,沈北新区
511,辽宁政法职业学院,1,1,0,0,0,0,0,0,专科,41.83733,123.62064,辽宁省,沈阳市,浑南区
512,辽宁民族师范高等专科学校,1,1,0,0,0,0,0,0,专科,41.83316,123.45007,辽宁省,沈阳市,皇姑区
513,辽宁轻工职业学院,1,1,0,0,0,0,0,0,专科,39.07992,121.74043,辽宁省,大连市,金州区
514,辽宁水利职业学院,1,1,0,0,0,0,0,0,专科,41.94078,123.51851,辽宁省,沈阳市,沈北新区
515,辽宁特殊教育师范高等专科学校,1,1,0,0,0,0,0,0,专科,41.6875,123.63068,辽宁省,沈阳市,浑南区
516,吉林大学,1,0,2,3,3,0,0,3,本科,43.83784,126.54944,吉林省,吉林市,船营区
517,延边大学,1,0,2,3,3,0,0,0,本科,42.91049,129.49265,吉林省,延边朝鲜族自治州,延吉市
518,长春理工大学,1,0,2,0,0,0,0,0,本科,43.81602,125.32357,吉林省,长春市,南关区
519,东北电力大学,1,0,2,0,0,0,0,0,本科,43.8233,126.5044,吉林省,吉林市,船营区
520,长春工业大学,1,0,2,0,0,0,0,0,本科,43.81602,125.32357,吉林省,长春市,南关区
521,吉林建筑大学,1,0,2,0,0,0,0,0,本科,43.83784,126.54944,吉林省,吉林市,船营区
522,吉林化工学院,1,0,2,0,0,0,0,0,本科,43.90026,126.61892,吉林省,吉林市,龙潭区
523,吉林农业大学,1,0,2,0,0,0,0,0,本科,43.9531,126.47757,吉林省,吉林市,昌邑区
524,长春中医药大学,1,0,2,0,0,0,0,0,本科,43.82876,125.42,吉林省,长春市,南关区
525,东北师范大学,1,0,2,3,3,0,0,0,本科,43.86188,125.33137,吉林省,长春市,南关区
526,北华大学,1,0,2,0,0,0,0,0,本科,43.81074,126.56256,吉林省,吉林市,丰满区
527,通化师范学院,1,0,2,0,0,0,0,0,本科,41.74709,125.98705,吉林省,通化市,东昌区
528,吉林师范大学,1,0,2,0,0,0,0,0,本科,43.83784,126.54944,吉林省,吉林市,船营区
529,吉林工程技术师范学院,1,0,2,0,0,0,0,0,本科,43.83784,126.54944,吉林省,吉林市,船营区
530,长春师范大学,1,0,2,0,0,0,0,0,本科,43.91484,125.39662,吉林省,长春市,二道区
531,白城师范学院,1,0,2,0,0,0,0,0,本科,45.61516,122.81,吉林省,白城市,洮北区
532,吉林财经大学,1,0,2,0,0,0,0,0,本科,43.83784,126.54944,吉林省,吉林市,船营区
533,吉林体育学院,1,0,2,0,0,0,0,0,本科,43.83784,126.54944,吉林省,吉林市,船营区
534,吉林艺术学院,1,0,2,0,0,0,0,0,本科,43.83784,126.54944,吉林省,吉林市,船营区
535,吉林华桥外国语学院,1,0,2,0,0,0,0,0,本科,43.83784,126.54944,吉林省,吉林市,船营区
536,吉林工商学院,1,0,2,0,0,0,0,0,本科,43.83784,126.54944,吉林省,吉林市,船营区
537,长春工程学院,1,0,2,0,0,0,0,0,本科,43.85563,125.27961,吉林省,长春市,朝阳区
538,吉林农业科技学院,1,0,2,0,0,0,0,0,本科,43.9559,126.47925,吉林省,吉林市,昌邑区
539,吉林警察学院,1,0,2,0,0,0,0,0,本科,43.83784,126.54944,吉林省,吉林市,船营区
540,长春大学,1,0,2,0,0,0,0,0,本科,43.83438,125.3214,吉林省,长春市,朝阳区
541,长春光华学院,1,0,2,0,0,0,0,0,本科,43.87703,125.43422,吉林省,长春市,南关区
542,长春工业大学人文信息学院,1,0,2,0,0,0,0,0,本科,43.78164,125.42835,吉林省,长春市,南关区
543,长春理工大学光电信息学院,1,0,2,0,0,0,0,0,本科,43.8078,125.23818,吉林省,长春市,朝阳区
544,长春财经学院,1,0,2,0,0,0,0,0,本科,43.78956,125.41522,吉林省,长春市,南关区
545,吉林建筑大学城建学院,1,0,2,0,0,0,0,0,本科,43.83784,126.54944,吉林省,吉林市,船营区
546,长春建筑学院,1,0,2,0,0,0,0,0,本科,43.69649,125.52264,吉林省,长春市,双阳区
547,长春科技学院,1,0,2,0,0,0,0,0,本科,43.53602,125.66757,吉林省,长春市,双阳区
548,吉林动画学院,1,0,2,0,0,0,0,0,本科,43.83784,126.54944,吉林省,吉林市,船营区
549,吉林师范大学博达学院,1,0,2,0,0,0,0,0,本科,43.83784,126.54944,吉林省,吉林市,船营区
550,长春大学旅游学院,1,0,2,0,0,0,0,0,本科,43.69039,125.52134,吉林省,长春市,双阳区
551,东北师范大学人文学院,1,0,2,0,0,0,0,0,本科,43.82223,125.40668,吉林省,长春市,南关区
552,吉林医药学院,1,0,2,0,0,0,0,0,本科,43.80494,126.56465,吉林省,吉林市,丰满区
553,长春师范高等专科学校,1,1,0,0,0,0,0,0,专科,43.81602,125.32357,吉林省,长春市,南关区
554,辽源职业技术学院,1,1,0,0,0,0,0,0,专科,42.93985,125.15502,吉林省,辽源市,西安区
555,四平职业大学,1,1,0,0,0,0,0,0,专科,43.09135,124.43157,吉林省,四平市,铁东区
556,长春汽车工业高等专科学校,1,1,0,0,0,0,0,0,专科,43.82948,125.14691,吉林省,长春市,朝阳区
557,长春金融高等专科学校,1,1,0,0,0,0,0,0,专科,43.83917,125.32825,吉林省,长春市,南关区
558,长春医学高等专科学校,1,1,0,0,0,0,0,0,专科,43.88543,125.42871,吉林省,长春市,二道区
559,吉林交通职业技术学院,1,1,0,0,0,0,0,0,专科,43.83784,126.54944,吉林省,吉林市,船营区
560,长春东方职业学院,1,1,0,0,0,0,0,0,专科,44.00752,125.00745,吉林省,长春市,农安县
561,吉林司法警官职业学院,1,1,0,0,0,0,0,0,专科,43.83784,126.54944,吉林省,吉林市,船营区
562,吉林电子信息职业技术学院,1,1,0,0,0,0,0,0,专科,43.92346,126.56149,吉林省,吉林市,龙潭区
563,吉林工业职业技术学院,1,1,0,0,0,0,0,0,专科,43.82148,126.55645,吉林省,吉林市,丰满区
564,吉林工程职业学院,1,1,0,0,0,0,0,0,专科,43.83784,126.54944,吉林省,吉林市,船营区
565,长春职业技术学院,1,1,0,0,0,0,0,0,专科,43.83109,125.36699,吉林省,长春市,二道区
566,白城医学高等专科学校,1,1,0,0,0,0,0,0,专科,45.60871,122.80013,吉林省,白城市,洮北区
567,长春信息技术职业学院,1,1,0,0,0,0,0,0,专科,43.77478,125.21318,吉林省,长春市,朝阳区
568,松原职业技术学院,1,1,0,0,0,0,0,0,专科,45.17289,124.85799,吉林省,松原市,宁江区
569,吉林铁道职业技术学院,1,1,0,0,0,0,0,0,专科,43.86723,126.57438,吉林省,吉林市,船营区
570,白城职业技术学院,1,1,0,0,0,0,0,0,专科,45.64113,122.80572,吉林省,白城市,洮北区
571,长白山职业技术学院,1,1,0,0,0,0,0,0,专科,41.94578,126.43628,吉林省,白山市,浑江区
572,吉林科技职业技术学院,1,1,0,0,0,0,0,0,专科,43.83784,126.54944,吉林省,吉林市,船营区
573,延边职业技术学院,1,1,0,0,0,0,0,0,专科,42.91693,129.5454,吉林省,延边朝鲜族自治州,延吉市
574,吉林城市职业技术学院,1,1,0,0,0,0,0,0,专科,43.88056,126.59098,吉林省,吉林市,昌邑区
575,吉林职业技术学院,1,1,0,0,0,0,0,0,专科,43.83784,126.54944,吉林省,吉林市,船营区
576,黑龙江大学,1,0,2,0,0,0,0,0,本科,45.70892,126.62034,黑龙江省,哈尔滨市,南岗区
577,哈尔滨工业大学,1,0,2,3,3,4,0,3,本科,45.74764,126.63249,黑龙江省,哈尔滨市,南岗区
578,哈尔滨理工大学,1,0,2,0,0,0,0,0,本科,45.71508,126.61481,黑龙江省,哈尔滨市,南岗区
579,哈尔滨工程大学,1,0,2,3,3,0,0,0,本科,45.77579,126.68219,黑龙江省,哈尔滨市,南岗区
580,黑龙江科技大学,1,0,2,0,0,0,0,0,本科,45.82012,126.65226,黑龙江省,哈尔滨市,松北区
581,东北石油大学,1,0,2,0,0,0,0,0,本科,45.84399,126.56031,黑龙江省,哈尔滨市,松北区
582,佳木斯大学,1,0,2,0,0,0,0,0,本科,46.78547,130.36433,黑龙江省,佳木斯市,向阳区
583,黑龙江八一农垦大学,1,0,2,0,0,0,0,0,本科,46.58763,125.16856,黑龙江省,大庆市,龙凤区
584,东北农业大学,1,0,2,3,3,0,0,0,本科,45.74239,126.72905,黑龙江省,哈尔滨市,香坊区
585,东北林业大学,1,0,2,3,3,0,0,0,本科,45.72074,126.63818,黑龙江省,哈尔滨市,香坊区
586,哈尔滨医科大学,1,0,2,0,0,0,0,0,本科,45.70216,126.62055,黑龙江省,哈尔滨市,南岗区
587,黑龙江中医药大学,1,0,2,0,0,0,0,0,本科,45.72638,126.64818,黑龙江省,哈尔滨市,香坊区
588,牡丹江医学院,1,0,2,0,0,0,0,0,本科,44.60301,129.57978,黑龙江省,牡丹江市,爱民区
589,哈尔滨师范大学,1,0,2,0,0,0,0,0,本科,45.7279,126.62566,黑龙江省,哈尔滨市,南岗区
590,齐齐哈尔大学,1,0,2,0,0,0,0,0,本科,47.35357,123.93006,黑龙江省,齐齐哈尔市,建华区
591,牡丹江师范学院,1,0,2,0,0,0,0,0,本科,44.5863,129.56366,黑龙江省,牡丹江市,爱民区
592,哈尔滨学院,1,0,2,0,0,0,0,0,本科,45.77236,126.62295,黑龙江省,哈尔滨市,道里区
593,大庆师范学院,1,0,2,0,0,0,0,0,本科,46.64028,124.86216,黑龙江省,大庆市,让胡路区
594,绥化学院,1,0,2,0,0,0,0,0,本科,46.62417,126.97755,黑龙江省,绥化市,北林区
595,哈尔滨商业大学,1,0,2,0,0,0,0,0,本科,45.74036,126.60823,黑龙江省,哈尔滨市,道里区
596,哈尔滨体育学院,1,0,2,0,0,0,0,0,本科,45.76046,126.67729,黑龙江省,哈尔滨市,南岗区
597,哈尔滨金融学院,1,0,2,0,0,0,0,0,本科,45.7228,126.73652,黑龙江省,哈尔滨市,香坊区
598,齐齐哈尔医学院,1,0,2,0,0,0,0,0,本科,47.37656,123.95507,黑龙江省,齐齐哈尔市,建华区
599,黑龙江工业学院,1,0,2,0,0,0,0,0,本科,45.28527,130.96888,黑龙江省,鸡西市,鸡冠区
600,黑龙江东方学院,1,0,2,0,0,0,0,0,本科,19.09614,108.65367,海南省,东方市,东方市
601,哈尔滨信息工程学院,1,0,2,0,0,0,0,0,本科,45.87579,126.5067,黑龙江省,哈尔滨市,呼兰区
602,黑龙江工程学院,1,0,2,0,0,0,0,0,本科,45.78599,126.68917,黑龙江省,哈尔滨市,道外区
603,齐齐哈尔工程学院,1,0,2,0,0,0,0,0,本科,47.30276,123.96528,黑龙江省,齐齐哈尔市,龙沙区
604,黑龙江外国语学院,1,0,2,0,0,0,0,0,本科,45.8566,126.55058,黑龙江省,哈尔滨市,呼兰区
605,黑龙江财经学院,1,0,2,0,0,0,0,0,本科,45.87683,126.49084,黑龙江省,哈尔滨市,呼兰区
606,哈尔滨石油学院,1,0,2,0,0,0,0,0,本科,45.84399,126.56031,黑龙江省,哈尔滨市,松北区
607,黑龙江工商学院,1,0,2,0,0,0,0,0,本科,45.8721,126.52544,黑龙江省,哈尔滨市,呼兰区
608,哈尔滨远东理工学院,1,0,2,0,0,0,0,0,本科,45.86616,126.53014,黑龙江省,哈尔滨市,呼兰区
609,哈尔滨剑桥学院,1,0,2,0,0,0,0,0,本科,45.65484,126.653796,黑龙江省,哈尔滨市,香坊区
610,黑龙江工程学院昆仑旅游学院,1,0,2,0,0,0,0,0,本科,45.74665,127.40506,黑龙江省,哈尔滨市,宾县
611,哈尔滨广厦学院,1,0,2,0,0,0,0,0,本科,45.87513,126.55053,黑龙江省,哈尔滨市,呼兰区
612,哈尔滨华德学院,1,0,2,0,0,0,0,0,本科,45.87408,126.54033,黑龙江省,哈尔滨市,呼兰区
613,黑河学院,1,0,2,0,0,0,0,0,本科,50.22734,127.54421,黑龙江省,黑河市,爱辉区
614,哈尔滨音乐学院,1,0,2,0,0,0,0,0,本科,45.82867,126.56794,黑龙江省,哈尔滨市,松北区
615,齐齐哈尔高等师范专科学校,1,1,0,0,0,0,0,0,专科,47.31535,123.9747,黑龙江省,齐齐哈尔市,铁锋区
616,伊春职业学院,1,1,0,0,0,0,0,0,专科,47.71517,128.87851,黑龙江省,伊春市,伊春区
617,牡丹江大学,1,1,0,0,0,0,0,0,专科,44.59279,129.57126,黑龙江省,牡丹江市,爱民区
618,黑龙江职业学院,1,1,0,0,0,0,0,0,专科,45.71609,126.60913,黑龙江省,哈尔滨市,南岗区
619,黑龙江建筑职业技术学院,1,1,0,0,0,0,0,0,专科,45.87204,126.50371,黑龙江省,哈尔滨市,呼兰区
620,黑龙江艺术职业学院,1,1,0,0,0,0,0,0,专科,45.72788,126.62093,黑龙江省,哈尔滨市,南岗区
621,大庆职业学院,1,1,0,0,0,0,0,0,专科,46.67544,125.14923,黑龙江省,大庆市,萨尔图区
622,黑龙江林业职业技术学院,1,1,0,0,0,0,0,0,专科,44.58975,129.56738,黑龙江省,牡丹江市,爱民区
623,黑龙江农业职业技术学院,1,1,0,0,0,0,0,0,专科,46.8013,130.39948,黑龙江省,佳木斯市,前进区
624,黑龙江农业工程职业学院,1,1,0,0,0,0,0,0,专科,45.67271,126.55513,黑龙江省,哈尔滨市,南岗区
625,黑龙江农垦职业学院,1,1,0,0,0,0,0,0,专科,45.87456,126.52879,黑龙江省,哈尔滨市,呼兰区
626,黑龙江司法警官职业学院,1,1,0,0,0,0,0,0,专科,45.64846,126.62558,黑龙江省,哈尔滨市,香坊区
627,鹤岗师范高等专科学校,1,1,0,0,0,0,0,0,专科,47.39974,130.50363,黑龙江省,鹤岗市,东山区
628,哈尔滨电力职业技术学院,1,1,0,0,0,0,0,0,专科,45.73467,126.69797,黑龙江省,哈尔滨市,香坊区
629,哈尔滨铁道职业技术学院,1,1,0,0,0,0,0,0,专科,45.57893,126.63935,黑龙江省,哈尔滨市,平房区
630,大兴安岭职业学院,1,1,0,0,0,0,0,0,专科,51.92398,124.59216,黑龙江省,大兴安岭地区,呼玛县
631,黑龙江农业经济职业学院,1,1,0,0,0,0,0,0,专科,44.42319,129.51051,黑龙江省,牡丹江市,宁安市
632,哈尔滨职业技术学院,1,1,0,0,0,0,0,0,专科,45.6673,126.65409,黑龙江省,哈尔滨市,香坊区
633,哈尔滨传媒职业学院,1,1,0,0,0,0,0,0,专科,45.80216,126.5358,黑龙江省,哈尔滨市,松北区
634,黑龙江生物科技职业学院,1,1,0,0,0,0,0,0,专科,45.8675,126.52712,黑龙江省,哈尔滨市,呼兰区
635,黑龙江商业职业学院,1,1,0,0,0,0,0,0,专科,44.589766,129.587684,黑龙江省,牡丹江市,爱民区
636,黑龙江公安警官职业学院,1,1,0,0,0,0,0,0,专科,45.87056,126.53898,黑龙江省,哈尔滨市,呼兰区
637,黑龙江信息技术职业学院,1,1,0,0,0,0,0,0,专科,45.722293,126.614845,黑龙江省,哈尔滨市,南岗区
638,哈尔滨江南职业技术学院,1,1,0,0,0,0,0,0,专科,45.64083,126.80036,黑龙江省,哈尔滨市,香坊区
639,黑龙江农垦科技职业学院,1,1,0,0,0,0,0,0,专科,45.75044,127.19151,黑龙江省,哈尔滨市,宾县
640,黑龙江旅游职业技术学院,1,1,0,0,0,0,0,0,专科,45.66753,126.62154,黑龙江省,哈尔滨市,南岗区
641,黑龙江三江美术职业学院,1,1,0,0,0,0,0,0,专科,46.69264,129.96484,黑龙江省,佳木斯市,郊区
642,黑龙江生态工程职业学院,1,1,0,0,0,0,0,0,专科,45.87624,126.50149,黑龙江省,哈尔滨市,呼兰区
643,黑龙江煤炭职业技术学院,1,1,0,0,0,0,0,0,专科,46.69471,131.17078,黑龙江省,双鸭山市,尖山区
644,七台河职业学院,1,1,0,0,0,0,0,0,专科,45.77751,131.03898,黑龙江省,七台河市,桃山区
645,黑龙江民族职业学院,1,1,0,0,0,0,0,0,专科,45.57711,126.6444,黑龙江省,哈尔滨市,平房区
646,大庆医学高等专科学校,1,1,0,0,0,0,0,0,专科,46.60014,125.05053,黑龙江省,大庆市,萨尔图区
647,黑龙江交通职业技术学院,1,1,0,0,0,0,0,0,专科,47.32253,123.98937,黑龙江省,齐齐哈尔市,铁锋区
648,哈尔滨应用职业技术学院,1,1,0,0,0,0,0,0,专科,45.65053,126.42195,黑龙江省,哈尔滨市,道里区
649,黑龙江幼儿师范高等专科学校,1,1,0,0,0,0,0,0,专科,44.60196,129.591,黑龙江省,牡丹江市,爱民区
650,哈尔滨科学技术职业学院,1,1,0,0,0,0,0,0,专科,45.54291,126.95894,黑龙江省,哈尔滨市,阿城区
651,黑龙江粮食职业学院,1,1,0,0,0,0,0,0,专科,45.73046,126.61037,黑龙江省,哈尔滨市,南岗区
652,佳木斯职业学院,1,1,0,0,0,0,0,0,专科,46.79611,130.32733,黑龙江省,佳木斯市,郊区
653,黑龙江护理高等专科学校,1,1,0,0,0,0,0,0,专科,45.68882,126.61704,黑龙江省,哈尔滨市,南岗区
654,哈尔滨工程技术职业学院,1,1,0,0,0,0,0,0,专科,45.80216,126.5358,黑龙江省,哈尔滨市,松北区
655,齐齐哈尔理工职业学院,1,1,0,0,0,0,0,0,专科,47.21672,123.60647,黑龙江省,齐齐哈尔市,富拉尔基区
656,哈尔滨幼儿师范高等专科学校,1,1,0,0,0,0,0,0,专科,45.72402,126.77163,黑龙江省,哈尔滨市,香坊区
657,黑龙江冰雪体育职业学院,1,1,0,0,0,0,0,0,专科,45.85867,126.68906,黑龙江省,哈尔滨市,松北区
658,复旦大学,1,0,2,3,3,4,0,3,本科,31.29864,121.50331,上海市,上海市,杨浦区
659,同济大学,1,0,2,3,3,0,0,3,本科,31.282318,121.50646,上海市,上海市,杨浦区
660,上海交通大学,1,0,2,3,3,4,0,3,本科,31.19876,121.43285,上海市,上海市,徐汇区
661,华东理工大学,1,0,2,3,3,0,0,0,本科,30.83078,121.50405,上海市,上海市,奉贤区
662,上海理工大学,1,0,2,0,0,0,0,0,本科,31.29268,121.55593,上海市,上海市,杨浦区
663,上海海事大学,1,0,2,0,0,0,0,0,本科,31.23037,121.4737,上海市,上海市,黄浦区
664,东华大学,1,0,2,3,3,0,0,0,本科,31.20352,121.41511,上海市,上海市,长宁区
665,上海电力学院,1,0,2,0,0,0,0,0,本科,31.29939,121.31071,上海市,上海市,嘉定区
666,上海应用技术大学,1,0,2,0,0,0,0,0,本科,31.23037,121.4737,上海市,上海市,黄浦区
667,上海健康医学院,1,0,2,0,0,0,0,0,本科,31.14109,121.42666,上海市,上海市,徐汇区
668,上海海洋大学,1,0,2,3,0,0,0,0,本科,31.23037,121.4737,上海市,上海市,黄浦区
669,上海中医药大学,1,0,2,3,0,0,0,0,本科,31.1944,121.5968,上海市,上海市,浦东新区
670,华东师范大学,1,0,2,3,3,0,0,3,本科,31.22847,121.4064,上海市,上海市,普陀区
671,上海师范大学,1,0,2,0,0,0,0,0,本科,31.23037,121.4737,上海市,上海市,黄浦区
672,上海外国语大学,1,0,2,3,3,0,0,0,本科,31.23037,121.4737,上海市,上海市,黄浦区
673,上海财经大学,1,0,2,3,3,0,0,0,本科,31.30639,121.50074,上海市,上海市,杨浦区
674,上海对外经贸大学,1,0,2,0,0,0,0,0,本科,31.23037,121.4737,上海市,上海市,黄浦区
675,上海海关学院,1,0,2,0,0,0,0,0,本科,31.16821,121.57693,上海市,上海市,浦东新区
676,华东政法大学,1,0,2,0,0,0,0,0,本科,31.05599,121.19712,上海市,上海市,松江区
677,上海体育学院,1,0,2,3,0,0,0,0,本科,31.31158,121.5257,上海市,上海市,杨浦区
678,上海音乐学院,1,0,2,3,0,0,0,0,本科,31.21331,121.45432,上海市,上海市,徐汇区
679,上海戏剧学院,1,0,2,0,0,0,0,0,本科,31.21734,121.44051,上海市,上海市,静安区
680,上海大学,1,0,2,3,3,0,0,0,本科,31.311505,121.394475,上海市,上海市,宝山区
681,上海公安学院,1,0,2,0,0,0,0,0,本科,31.23037,121.4737,上海市,上海市,黄浦区
682,上海工程技术大学,1,0,2,0,0,0,0,0,本科,31.26613,121.42551,上海市,上海市,普陀区
683,上海立信会计金融学院,1,0,2,0,0,0,0,0,本科,31.278,121.6539,上海市,上海市,浦东新区
684,上海电机学院,1,0,2,0,0,0,0,0,本科,31.23037,121.4737,上海市,上海市,黄浦区
685,上海杉达学院,1,0,2,0,0,0,0,0,本科,31.26836,121.65908,上海市,上海市,浦东新区
686,上海政法学院,1,0,2,0,0,0,0,0,本科,31.11047,121.17327,上海市,上海市,青浦区
687,上海第二工业大学,1,0,2,0,0,0,0,0,本科,31.26147,121.6521,上海市,上海市,浦东新区
688,上海商学院,1,0,2,0,0,0,0,0,本科,30.94121,121.4561,上海市,上海市,奉贤区
689,上海建桥学院,1,0,2,0,0,0,0,0,本科,30.89437,121.89214,上海市,上海市,浦东新区
690,上海兴伟学院,1,0,2,0,0,0,0,0,本科,31.04287,121.7871,上海市,上海市,浦东新区
691,上海视觉艺术学院,1,0,2,0,0,0,0,0,本科,31.04613,121.20692,上海市,上海市,松江区
692,上海外国语大学贤达经济人文学院,1,0,2,0,0,0,0,0,本科,31.48591,121.83371,上海市,上海市,崇明县
693,上海师范大学天华学院,1,0,2,0,0,0,0,0,本科,31.40868,121.20198,上海市,上海市,嘉定区
694,上海科技大学,1,0,2,0,0,0,0,0,本科,31.20242,121.45569,上海市,上海市,徐汇区
695,上海纽约大学,1,0,2,0,0,0,0,0,本科,31.22592,121.53363,上海市,上海市,浦东新区
696,上海旅游高等专科学校,1,1,0,0,0,0,0,0,专科,30.83251,121.51329,上海市,上海市,奉贤区
697,上海东海职业技术学院,1,1,0,0,0,0,0,0,专科,31.02966,121.45734,上海市,上海市,闵行区
698,上海工商职业技术学院,1,1,0,0,0,0,0,0,专科,31.24892,121.22095,上海市,上海市,青浦区
699,上海出版印刷高等专科学校,1,1,0,0,0,0,0,0,专科,31.28309,121.54333,上海市,上海市,杨浦区
700,上海行健职业学院,1,1,0,0,0,0,0,0,专科,31.28014,121.43177,上海市,上海市,静安区
701,上海城建职业学院,1,1,0,0,0,0,0,0,专科,30.90601,121.41478,上海市,上海市,奉贤区
702,上海交通职业技术学院,1,1,0,0,0,0,0,0,专科,31.06701,121.68079,上海市,上海市,浦东新区
703,上海海事职业技术学院,1,1,0,0,0,0,0,0,专科,31.23913,121.52948,上海市,上海市,浦东新区
704,上海电子信息职业技术学院,1,1,0,0,0,0,0,0,专科,30.92522,121.69614,上海市,上海市,奉贤区
705,上海震旦职业学院,1,1,0,0,0,0,0,0,专科,31.41944,121.35616,上海市,上海市,宝山区
706,上海民远职业技术学院,1,1,0,0,0,0,0,0,专科,31.19794,121.66054,上海市,上海市,浦东新区
707,上海欧华职业技术学院,1,1,0,0,0,0,0,0,专科,31.41992,121.35562,上海市,上海市,宝山区
708,上海思博职业技术学院,1,1,0,0,0,0,0,0,专科,31.03766,121.78053,上海市,上海市,浦东新区
709,上海立达职业技术学院,1,1,0,0,0,0,0,0,专科,30.936,121.31861,上海市,上海市,松江区
710,上海工艺美术职业学院,1,1,0,0,0,0,0,0,专科,31.4083,121.25164,上海市,上海市,嘉定区
711,上海济光职业技术学院,1,1,0,0,0,0,0,0,专科,31.30046,121.49996,上海市,上海市,杨浦区
712,上海工商外国语职业学院,1,1,0,0,0,0,0,0,专科,31.04843,121.7812,上海市,上海市,浦东新区
713,上海科学技术职业学院,1,1,0,0,0,0,0,0,专科,31.3861,121.25715,上海市,上海市,嘉定区
714,上海农林职业技术学院,1,1,0,0,0,0,0,0,专科,31.0101,121.22026,上海市,上海市,松江区
715,上海邦德职业技术学院,1,1,0,0,0,0,0,0,专科,31.32247,121.40172,上海市,上海市,宝山区
716,上海中侨职业技术学院,1,1,0,0,0,0,0,0,专科,31.14554,121.6249,上海市,上海市,浦东新区
717,上海电影艺术职业学院,1,1,0,0,0,0,0,0,专科,31.19182,121.58486,上海市,上海市,浦东新区
718,上海中华职业技术学院,1,1,0,0,0,0,0,0,专科,31.20053,121.47289,上海市,上海市,黄浦区
719,上海工会管理职业学院,1,1,0,0,0,0,0,0,专科,30.90619,121.41461,上海市,上海市,奉贤区
720,上海体育职业学院,1,1,0,0,0,0,0,0,专科,31.14215,121.43161,上海市,上海市,徐汇区
721,上海民航职业技术学院,1,1,0,0,0,0,0,0,专科,31.17165,121.45576,上海市,上海市,徐汇区
722,南京大学,1,0,2,3,3,4,0,3,本科,32.05595,118.78022,江苏省,南京市,鼓楼区
723,苏州大学,1,0,2,3,3,0,0,0,本科,31.30567,120.64041,江苏省,苏州市,吴中区
724,东南大学,1,0,2,3,3,0,0,3,本科,31.88624,118.81835,江苏省,南京市,江宁区
725,南京航空航天大学,1,0,2,3,3,0,0,0,本科,32.03557,118.81959,江苏省,南京市,秦淮区
726,南京理工大学,1,0,2,3,3,0,0,0,本科,32.02974,118.85602,江苏省,南京市,玄武区
727,江苏科技大学,1,0,2,0,0,0,0,0,本科,32.18197,119.38974,江苏省,镇江市,润州区
728,中国矿业大学,1,0,2,3,3,0,0,0,本科,34.21643,117.14677,江苏省,徐州市,铜山区
729,南京工业大学,1,0,2,0,0,0,0,0,本科,32.07928,118.77524,江苏省,南京市,鼓楼区
730,常州大学,1,0,2,0,0,0,0,0,本科,31.68445,119.95521,江苏省,常州市,武进区
731,南京邮电大学,1,0,2,3,0,0,0,0,本科,32.08061,118.77077,江苏省,南京市,鼓楼区
732,河海大学,1,0,2,3,3,0,0,0,本科,31.91514,118.78594,江苏省,南京市,江宁区
733,江南大学,1,0,2,3,3,0,0,0,本科,31.48809,120.27325,江苏省,无锡市,滨湖区
734,南京林业大学,1,0,2,3,0,0,0,0,本科,32.07879,118.81513,江苏省,南京市,玄武区
735,江苏大学,1,0,2,0,0,0,0,0,本科,32.19932,119.51428,江苏省,镇江市,京口区
736,南京信息工程大学,1,0,2,3,0,0,0,0,本科,32.20306,118.71909,江苏省,南京市,浦口区
737,南通大学,1,0,2,0,0,0,0,0,本科,31.97318,120.90934,江苏省,南通市,崇川区
738,盐城工学院,1,0,2,0,0,0,0,0,本科,33.38275,120.20091,江苏省,盐城市,亭湖区
739,南京农业大学,1,0,2,3,3,0,0,0,本科,32.03405,118.84462,江苏省,南京市,玄武区
740,南京医科大学,1,0,2,0,0,0,0,0,本科,32.04451,118.77468,江苏省,南京市,鼓楼区
741,徐州医科大学,1,0,2,0,0,0,0,0,本科,34.26183,117.25622,江苏省,徐州市,云龙区
742,南京中医药大学,1,0,2,3,0,0,0,0,本科,32.04407,118.76714,江苏省,南京市,鼓楼区
743,中国药科大学,1,0,2,3,3,0,0,0,本科,31.90052,118.91616,江苏省,南京市,江宁区
744,南京师范大学,1,0,2,3,3,0,0,0,本科,32.05838,118.79647,江苏省,南京市,玄武区
745,江苏师范大学,1,0,2,0,0,0,0,0,本科,34.4268,117.47735,江苏省,徐州市,贾汪区
746,淮阴师范学院,1,0,2,0,0,0,0,0,本科,33.63978,119.00716,江苏省,淮安市,淮阴区
747,盐城师范学院,1,0,2,0,0,0,0,0,本科,33.3845,120.15662,江苏省,盐城市,亭湖区
748,南京财经大学,1,0,2,0,0,0,0,0,本科,32.08511,118.76201,江苏省,南京市,鼓楼区
749,江苏警官学院,1,0,2,0,0,0,0,0,本科,32.09252,118.65774,江苏省,南京市,浦口区
750,南京体育学院,1,0,2,0,0,0,0,0,本科,32.04341,118.86713,江苏省,南京市,玄武区
751,南京艺术学院,1,0,2,0,0,0,0,0,本科,32.06403,118.75325,江苏省,南京市,鼓楼区
752,苏州科技大学,1,0,2,0,0,0,0,0,本科,31.24923,120.57673,江苏省,苏州市,虎丘区
753,常熟理工学院,1,0,2,0,0,0,0,0,本科,31.60875,120.73696,江苏省,苏州市,常熟市
754,淮阴工学院,1,0,2,0,0,0,0,0,本科,33.552,119.03578,江苏省,淮安市,清江浦区
755,常州工学院,1,0,2,0,0,0,0,0,本科,31.80657,119.9669,江苏省,常州市,天宁区
756,扬州大学,1,0,2,0,0,0,0,0,本科,32.384465,119.42664,江苏省,扬州市,邗江区
757,三江学院,1,0,2,0,0,0,0,0,本科,29.67666,116.01004,江西省,九江市,濂溪区
758,南京工程学院,1,0,2,0,0,0,0,0,本科,31.920075,118.889473,江苏省,南京市,江宁区
759,南京审计大学,1,0,2,0,0,0,0,0,本科,32.06251,118.60901,江苏省,南京市,浦口区
760,南京晓庄学院,1,0,2,0,0,0,0,0,本科,32.03678,118.75216,江苏省,南京市,建邺区
761,江苏理工学院,1,0,2,0,0,0,0,0,本科,31.75309,119.91938,江苏省,常州市,武进区
762,淮海工学院,1,0,2,0,0,0,0,0,本科,34.60626,119.22181,江苏省,连云港市,海州区
763,徐州工程学院,1,0,2,0,0,0,0,0,本科,34.19268,117.30021,江苏省,徐州市,云龙区
764,南京特殊教育师范学院,1,0,2,0,0,0,0,0,本科,32.12882,118.83021,江苏省,南京市,栖霞区
765,南通理工学院,1,0,2,0,0,0,0,0,本科,32.04264,120.80915,江苏省,南通市,港闸区
766,南京森林警察学院,1,0,2,0,0,0,0,0,本科,32.10824,118.91844,江苏省,南京市,栖霞区
767,东南大学成贤学院,1,0,2,0,0,0,0,0,本科,32.15402,118.70459,江苏省,南京市,浦口区
768,泰州学院,1,0,2,0,0,0,0,0,本科,32.47632,119.94101,江苏省,泰州市,海陵区
769,无锡太湖学院,1,0,2,0,0,0,0,0,本科,31.57464,120.22561,江苏省,无锡市,滨湖区
770,金陵科技学院,1,0,2,0,0,0,0,0,本科,31.90523,118.89987,江苏省,南京市,江宁区
771,中国矿业大学徐海学院,1,0,2,0,0,0,0,0,本科,34.22216,117.19869,江苏省,徐州市,泉山区
772,南京大学金陵学院,1,0,2,0,0,0,0,0,本科,32.17847,118.70541,江苏省,南京市,浦口区
773,南京理工大学紫金学院,1,0,2,0,0,0,0,0,本科,32.12609,118.9336,江苏省,南京市,栖霞区
774,南京航空航天大学金城学院,1,0,2,0,0,0,0,0,本科,31.70021,118.88571,江苏省,南京市,江宁区
775,中国传媒大学南广学院,1,0,2,0,0,0,0,0,本科,31.88447,118.88898,江苏省,南京市,江宁区
776,南京理工大学泰州科技学院,1,0,2,0,0,0,0,0,本科,32.02935,118.85627,江苏省,南京市,玄武区
777,南京师范大学泰州学院,1,0,2,0,0,0,0,0,本科,32.05355,118.76917,江苏省,南京市,鼓楼区
778,南京工业大学浦江学院,1,0,2,0,0,0,0,0,本科,32.01802,119.05213,江苏省,南京市,江宁区
779,南京师范大学中北学院,1,0,2,0,0,0,0,0,本科,32.11591,118.90999,江苏省,南京市,栖霞区
780,南京医科大学康达学院,1,0,2,0,0,0,0,0,本科,32.04451,118.77468,江苏省,南京市,鼓楼区
781,南京中医药大学翰林学院,1,0,2,0,0,0,0,0,本科,32.37844,119.89519,江苏省,泰州市,海陵区
782,南京信息工程大学滨江学院,1,0,2,0,0,0,0,0,本科,32.17583,118.68299,江苏省,南京市,浦口区
783,苏州大学文正学院,1,0,2,0,0,0,0,0,本科,31.21695,120.58466,江苏省,苏州市,吴中区
784,苏州大学应用技术学院,1,0,2,0,0,0,0,0,本科,31.14922,120.8424,江苏省,苏州市,昆山市
785,苏州科技大学天平学院,1,0,2,0,0,0,0,0,本科,31.26527,120.55652,江苏省,苏州市,吴中区
786,江苏大学京江学院,1,0,2,0,0,0,0,0,本科,32.20506,119.50911,江苏省,镇江市,京口区
787,扬州大学广陵学院,1,0,2,0,0,0,0,0,本科,32.377334,119.425045,江苏省,扬州市,邗江区
788,江苏师范大学科文学院,1,0,2,0,0,0,0,0,本科,34.19573,117.17537,江苏省,徐州市,铜山区
789,南京邮电大学通达学院,1,0,2,0,0,0,0,0,本科,32.08029,118.77129,江苏省,南京市,鼓楼区
790,南京财经大学红山学院,1,0,2,0,0,0,0,0,本科,32.08511,118.76201,江苏省,南京市,鼓楼区
791,江苏科技大学苏州理工学院,1,0,2,0,0,0,0,0,本科,31.89383,120.57104,江苏省,苏州市,张家港市
792,常州大学怀德学院,1,0,2,0,0,0,0,0,本科,31.77998,119.90618,江苏省,常州市,钟楼区
793,南通大学杏林学院,1,0,2,0,0,0,0,0,本科,32.01771,120.90737,江苏省,南通市,崇川区
794,南京审计大学金审学院,1,0,2,0,0,0,0,0,本科,32.08746,118.91679,江苏省,南京市,栖霞区
795,宿迁学院,1,0,2,0,0,0,0,0,本科,33.92965,118.29646,江苏省,宿迁市,宿城区
796,江苏第二师范学院,1,0,2,0,0,0,0,0,本科,32.0583,118.75422,江苏省,南京市,鼓楼区
797,西交利物浦大学,1,0,2,0,0,0,0,0,本科,31.2745,120.73835,江苏省,苏州市,吴中区
798,昆山杜克大学,1,0,2,0,0,0,0,0,本科,31.41733,120.89911,江苏省,苏州市,昆山市
799,盐城幼儿师范高等专科学校,1,1,0,0,0,0,0,0,专科,33.30826,120.17732,江苏省,盐城市,盐都区
800,苏州幼儿师范高等专科学校,1,1,0,0,0,0,0,0,专科,31.29834,120.58319,江苏省,苏州市,姑苏区
801,民办明达职业技术学院,1,1,0,0,0,0,0,0,专科,33.7855,120.33914,江苏省,盐城市,射阳县
802,无锡职业技术学院,1,1,0,0,0,0,0,0,专科,31.49496,120.27274,江苏省,无锡市,滨湖区
803,江苏建筑职业技术学院,1,1,0,0,0,0,0,0,专科,34.20309,117.17823,江苏省,徐州市,铜山区
804,南京工业职业技术学院,1,1,0,0,0,0,0,0,专科,32.12035,118.9414,江苏省,南京市,栖霞区
805,江苏工程职业技术学院,1,1,0,0,0,0,0,0,专科,31.68533,119.94752,江苏省,常州市,武进区
806,苏州工艺美术职业技术学院,1,1,0,0,0,0,0,0,专科,31.23059,120.5865,江苏省,苏州市,虎丘区
807,连云港职业技术学院,1,1,0,0,0,0,0,0,专科,34.66224,119.24149,江苏省,连云港市,海州区
808,镇江市高等专科学校,1,1,0,0,0,0,0,0,专科,32.19742,119.46713,江苏省,镇江市,京口区
809,南通职业大学,1,1,0,0,0,0,0,0,专科,32.00912,120.89367,江苏省,南通市,崇川区
810,苏州职业大学,1,1,0,0,0,0,0,0,专科,31.22348,120.59645,江苏省,苏州市,吴中区
811,沙洲职业工学院,1,1,0,0,0,0,0,0,专科,31.9035,120.58839,江苏省,苏州市,张家港市
812,扬州市职业大学,1,1,0,0,0,0,0,0,专科,32.39358,119.41269,江苏省,扬州市,邗江区
813,连云港师范高等专科学校,1,1,0,0,0,0,0,0,专科,34.64624,119.22988,江苏省,连云港市,海州区
814,江苏经贸职业技术学院,1,1,0,0,0,0,0,0,专科,31.93081,118.88499,江苏省,南京市,江宁区
815,九州职业技术学院,1,1,0,0,0,0,0,0,专科,34.18412,117.16069,江苏省,徐州市,铜山区
816,硅湖职业技术学院,1,1,0,0,0,0,0,0,专科,31.28267,121.14172,江苏省,苏州市,昆山市
817,泰州职业技术学院,1,1,0,0,0,0,0,0,专科,32.485459,119.941958,江苏省,泰州市,海陵区
818,常州信息职业技术学院,1,1,0,0,0,0,0,0,专科,31.6786,119.95483,江苏省,常州市,武进区
819,江苏联合职业技术学院,1,1,0,0,0,0,0,0,专科,32.00881,118.7418,江苏省,南京市,建邺区
820,江苏海事职业技术学院,1,1,0,0,0,0,0,0,专科,31.91778,118.90823,江苏省,南京市,江宁区
821,应天职业技术学院,1,1,0,0,0,0,0,0,专科,32.08745,118.91678,江苏省,南京市,栖霞区
822,无锡科技职业学院,1,1,0,0,0,0,0,0,专科,31.52103,120.3906,江苏省,无锡市,新吴区
823,盐城卫生职业技术学院,1,1,0,0,0,0,0,0,专科,33.32547,120.17119,江苏省,盐城市,盐都区
824,扬州环境资源职业技术学院,1,1,0,0,0,0,0,0,专科,32.39358,119.41269,江苏省,扬州市,邗江区
825,南通科技职业学院,1,1,0,0,0,0,0,0,专科,32.00459,120.89234,江苏省,南通市,崇川区
826,苏州经贸职业技术学院,1,1,0,0,0,0,0,0,专科,31.25169,120.56784,江苏省,苏州市,虎丘区
827,苏州工业职业技术学院,1,1,0,0,0,0,0,0,专科,31.22063,120.5905,江苏省,苏州市,吴中区
828,苏州托普信息职业技术学院,1,1,0,0,0,0,0,0,专科,31.46292,120.84787,江苏省,苏州市,昆山市
829,苏州卫生职业技术学院,1,1,0,0,0,0,0,0,专科,31.29834,120.58319,江苏省,苏州市,姑苏区
830,无锡商业职业技术学院,1,1,0,0,0,0,0,0,专科,31.56237,120.17193,江苏省,无锡市,滨湖区
831,南通航运职业技术学院,1,1,0,0,0,0,0,0,专科,31.91594,120.96208,江苏省,南通市,通州区
832,南京交通职业技术学院,1,1,0,0,0,0,0,0,专科,31.91125,118.91004,江苏省,南京市,江宁区
833,淮安信息职业技术学院,1,1,0,0,0,0,0,0,专科,33.55194,119.0468,江苏省,淮安市,清浦区
834,江苏农牧科技职业学院,1,1,0,0,0,0,0,0,专科,32.49124,119.94079,江苏省,泰州市,海陵区
835,常州纺织服装职业技术学院,1,1,0,0,0,0,0,0,专科,31.68399,119.93957,江苏省,常州市,武进区
836,苏州农业职业技术学院,1,1,0,0,0,0,0,0,专科,31.31428,120.58266,江苏省,苏州市,姑苏区
837,苏州工业园区职业技术学院,1,1,0,0,0,0,0,0,专科,31.25985,120.75497,江苏省,苏州市,吴中区
838,太湖创意职业技术学院,1,1,0,0,0,0,0,0,专科,31.56409,120.22404,江苏省,无锡市,滨湖区
839,炎黄职业技术学院,1,1,0,0,0,0,0,0,专科,33.78362,119.30257,江苏省,淮安市,涟水县
840,南京科技职业学院,1,1,0,0,0,0,0,0,专科,32.23463,118.74847,江苏省,南京市,六合区
841,正德职业技术学院,1,1,0,0,0,0,0,0,专科,31.93919,118.78487,江苏省,南京市,江宁区
842,钟山职业技术学院,1,1,0,0,0,0,0,0,专科,32.04461,118.89043,江苏省,南京市,栖霞区
843,无锡南洋职业技术学院,1,1,0,0,0,0,0,0,专科,31.49481,120.24516,江苏省,无锡市,滨湖区
844,江南影视艺术职业学院,1,1,0,0,0,0,0,0,专科,31.56871,120.17492,江苏省,无锡市,惠山区
845,金肯职业技术学院,1,1,0,0,0,0,0,0,专科,31.68605,118.87903,江苏省,南京市,江宁区
846,常州轻工职业技术学院,1,1,0,0,0,0,0,0,专科,31.67891,119.93962,江苏省,常州市,武进区
847,常州工程职业技术学院,1,1,0,0,0,0,0,0,专科,31.68533,119.94752,江苏省,常州市,武进区
848,江苏农林职业技术学院,1,1,0,0,0,0,0,0,专科,31.95921,119.1713,江苏省,镇江市,句容市
849,江苏食品药品职业技术学院,1,1,0,0,0,0,0,0,专科,33.54643,119.04665,江苏省,淮安市,清江浦区
850,建东职业技术学院,1,1,0,0,0,0,0,0,专科,31.82524,119.99168,江苏省,常州市,新北区
851,南京铁道职业技术学院,1,1,0,0,0,0,0,0,专科,32.097381,118.69822,江苏省,南京市,浦口区
852,徐州工业职业技术学院,1,1,0,0,0,0,0,0,专科,34.29935,117.14184,江苏省,徐州市,鼓楼区
853,江苏信息职业技术学院,1,1,0,0,0,0,0,0,专科,32.12802,118.94169,江苏省,南京市,栖霞区
854,宿迁职业技术学院,1,1,0,0,0,0,0,0,专科,33.96193,118.27549,江苏省,宿迁市,宿城区
855,南京信息职业技术学院,1,1,0,0,0,0,0,0,专科,32.12802,118.94169,江苏省,南京市,栖霞区
856,江海职业技术学院,1,1,0,0,0,0,0,0,专科,32.32399,119.43348,江苏省,扬州市,邗江区
857,常州机电职业技术学院,1,1,0,0,0,0,0,0,专科,31.67874,119.94733,江苏省,常州市,武进区
858,江阴职业技术学院,1,1,0,0,0,0,0,0,专科,31.87346,120.24765,江苏省,无锡市,江阴市
859,无锡城市职业技术学院,1,1,0,0,0,0,0,0,专科,31.58342,120.18474,江苏省,无锡市,惠山区
860,无锡工艺职业技术学院,1,1,0,0,0,0,0,0,专科,31.34024,119.83406,江苏省,无锡市,宜兴市
861,金山职业技术学院,1,1,0,0,0,0,0,0,专科,32.198,119.42508,江苏省,镇江市,润州区
862,苏州健雄职业技术学院,1,1,0,0,0,0,0,0,专科,31.41103,121.13608,江苏省,苏州市,太仓市
863,盐城工业职业技术学院,1,1,0,0,0,0,0,0,专科,33.32138,120.17507,江苏省,盐城市,盐都区
864,江苏财经职业技术学院,1,1,0,0,0,0,0,0,专科,33.55044,119.05982,江苏省,淮安市,清江浦区
865,扬州工业职业技术学院,1,1,0,0,0,0,0,0,专科,32.33454,119.39798,江苏省,扬州市,邗江区
866,苏州港大思培科技职业学院,1,1,0,0,0,0,0,0,专科,31.27498,120.7423,江苏省,苏州市,吴中区
867,昆山登云科技职业学院,1,1,0,0,0,0,0,0,专科,31.38962,120.89122,江苏省,苏州市,昆山市
868,南京视觉艺术职业学院,1,1,0,0,0,0,0,0,专科,31.74688,118.92762,江苏省,南京市,溧水区
869,江苏城市职业学院,1,1,0,0,0,0,0,0,专科,32.02002,118.74702,江苏省,南京市,建邺区
870,南京城市职业学院,1,1,0,0,0,0,0,0,专科,32.12802,118.82341,江苏省,南京市,栖霞区
871,南京机电职业技术学院,1,1,0,0,0,0,0,0,专科,32.00631,118.90401,江苏省,南京市,江宁区
872,苏州高博软件技术职业学院,1,1,0,0,0,0,0,0,专科,31.32172,120.41713,江苏省,苏州市,虎丘区
873,南京旅游职业学院,1,1,0,0,0,0,0,0,专科,31.92942,118.89161,江苏省,南京市,江宁区
874,江苏建康职业学院,1,1,0,0,0,0,0,0,专科,32.0755,118.61125,江苏省,南京市,浦口区
875,苏州信息职业技术学院,1,1,0,0,0,0,0,0,专科,31.13519,120.63357,江苏省,苏州市,吴江区
876,宿迁泽达职业技术学院,1,1,0,0,0,0,0,0,专科,34.02062,118.2831,江苏省,宿迁市,宿豫区
877,苏州工业园区服务外包职业学院,1,1,0,0,0,0,0,0,专科,31.25859,120.74823,江苏省,苏州市,吴中区
878,徐州幼儿师范高等专科学校,1,1,0,0,0,0,0,0,专科,34.2044,117.28577,江苏省,徐州市,云龙区
879,徐州生物工程职业技术学院,1,1,0,0,0,0,0,0,专科,34.26208,117.13572,江苏省,徐州市,泉山区
880,江苏商贸职业学院,1,1,0,0,0,0,0,0,专科,32.05267,120.88797,江苏省,南通市,港闸区
881,南通师范高等专科学校,1,1,0,0,0,0,0,0,专科,32.00487,120.87372,江苏省,南通市,崇川区
882,扬州中瑞酒店职业学院,1,1,0,0,0,0,0,0,专科,32.3694,119.35607,江苏省,扬州市,邗江区
883,江苏护理职业学院,1,1,0,0,0,0,0,0,专科,33.62124,119.01669,江苏省,淮安市,淮阴区
884,江苏财会职业学院,1,1,0,0,0,0,0,0,专科,34.64886,119.23838,江苏省,连云港市,海州区
885,江苏城乡建设职业学院,1,1,0,0,0,0,0,0,专科,31.766149,119.752119,江苏省,常州市,武进区
886,江苏航空职业技术学院,1,1,0,0,0,0,0,0,专科,32.142669,119.717615,江苏省,镇江市,丹徒区
887,江苏安全技术职业学院,1,1,0,0,0,0,0,0,专科,34.42408,117.48074,江苏省,徐州市,贾汪区
888,浙江大学,1,0,2,3,3,4,0,3,本科,30.26993,120.19626,浙江省,杭州市,江干区
889,杭州电子科技大学,1,0,2,0,0,0,0,0,本科,30.31301,120.34438,浙江省,杭州市,江干区
890,浙江工业大学,1,0,2,0,0,0,0,0,本科,30.2932,120.16617,浙江省,杭州市,下城区
891,浙江理工大学,1,0,2,0,0,0,0,0,本科,30.3107,120.35191,浙江省,杭州市,江干区
892,浙江海洋大学,1,0,2,0,0,0,0,0,本科,29.95943,122.19456,浙江省,舟山市,定海区
893,浙江农林大学,1,0,2,0,0,0,0,0,本科,30.25672,119.72887,浙江省,杭州市,临安市
894,温州医科大学,1,0,2,0,0,0,0,0,本科,27.92511,120.71003,浙江省,温州市,瓯海区
895,浙江中医药大学,1,0,2,0,0,0,0,0,本科,30.25183,120.1658,浙江省,杭州市,上城区
896,浙江师范大学,1,0,2,0,0,0,0,0,本科,29.13561,119.64652,浙江省,金华市,婺城区
897,杭州师范大学,1,0,2,0,0,0,0,0,本科,30.31629,120.3948,浙江省,杭州市,江干区
898,湖州师范学院,1,0,2,0,0,0,0,0,本科,30.87243,120.12204,浙江省,湖州市,吴兴区
899,绍兴文理学院,1,0,2,0,0,0,0,0,本科,29.98938,120.57515,浙江省,绍兴市,越城区
900,台州学院,1,0,2,0,0,0,0,0,本科,28.656157,121.391319,浙江省,台州市,椒江区
901,温州大学,1,0,2,0,0,0,0,0,本科,27.9184,120.69711,浙江省,温州市,瓯海区
902,丽水学院,1,0,2,0,0,0,0,0,本科,28.45855,119.90618,浙江省,丽水市,莲都区
903,浙江工商大学,1,0,2,0,0,0,0,0,本科,30.31257,120.37984,浙江省,杭州市,江干区
904,嘉兴学院,1,0,2,0,0,0,0,0,本科,30.74536,120.73078,浙江省,嘉兴市,南湖区
905,中国美术学院,1,0,2,3,0,0,0,0,本科,30.1558,120.0779,浙江省,杭州市,西湖区
906,中国计量大学,1,0,2,0,0,0,0,0,本科,30.32099,120.36264,浙江省,杭州市,江干区
907,公安海警学院,1,0,2,0,0,0,0,0,本科,30.0583,112.22948,湖北省,荆州市,公安县
908,浙江万里学院,1,0,2,0,0,0,0,0,本科,29.81665,121.56311,浙江省,宁波市,鄞州区
909,浙江科技学院,1,0,2,0,0,0,0,0,本科,30.22248,120.0274,浙江省,杭州市,西湖区
910,宁波工程学院,1,0,2,0,0,0,0,0,本科,29.91166,121.61022,浙江省,宁波市,江北区
911,浙江水利水电学院,1,0,2,0,0,0,0,0,本科,30.3131,120.37374,浙江省,杭州市,江干区
912,浙江财经大学,1,0,2,0,0,0,0,0,本科,30.42708,120.43999,浙江省,嘉兴市,海宁市
913,浙江警察学院,1,0,2,0,0,0,0,0,本科,30.17097,120.15002,浙江省,杭州市,滨江区
914,衢州学院,1,0,2,0,0,0,0,0,本科,28.98282,118.86835,浙江省,衢州市,柯城区
915,宁波大学,1,0,2,3,0,0,0,0,本科,29.90909,121.63715,浙江省,宁波市,江北区
916,浙江传媒学院,1,0,2,0,0,0,0,0,本科,30.32073,120.3423,浙江省,杭州市,江干区
917,浙江树人学院,1,0,2,0,0,0,0,0,本科,30.31529,120.1564,浙江省,杭州市,拱墅区
918,浙江越秀外国语学院,1,0,2,0,0,0,0,0,本科,29.96921,120.60357,浙江省,绍兴市,越城区
919,宁波大红鹰学院,1,0,2,0,0,0,0,0,本科,29.88845,121.48205,浙江省,宁波市,鄞州区
920,浙江大学城市学院,1,0,2,0,0,0,0,0,本科,30.3222,120.15539,浙江省,杭州市,拱墅区
921,浙江大学宁波理工学院,1,0,2,0,0,0,0,0,本科,29.81518,121.57468,浙江省,宁波市,鄞州区
922,杭州医学院,1,0,2,0,0,0,0,0,本科,30.17271,120.15965,浙江省,杭州市,滨江区
923,浙江工业大学之江学院,1,0,2,0,0,0,0,0,本科,30.16694,120.07945,浙江省,杭州市,西湖区
924,浙江师范大学行知学院,1,0,2,0,0,0,0,0,本科,29.13113,119.63751,浙江省,金华市,婺城区
925,宁波大学科学技术学院,1,0,2,0,0,0,0,0,本科,29.91426,121.63176,浙江省,宁波市,镇海区
926,杭州电子科技大学信息工程学院,1,0,2,0,0,0,0,0,本科,30.28675,120.13981,浙江省,杭州市,西湖区
927,浙江理工大学科技与艺术学院,1,0,2,0,0,0,0,0,本科,30.28301,120.02338,浙江省,杭州市,余杭区
928,浙江海洋大学东海科学技术学院,1,0,2,0,0,0,0,0,本科,30.03762,122.11202,浙江省,舟山市,定海区
929,浙江农林大学暨阳学院,1,0,2,0,0,0,0,0,本科,29.74747,120.25512,浙江省,绍兴市,诸暨市
930,温州医科大学仁济学院,1,0,2,0,0,0,0,0,本科,27.92339,120.70919,浙江省,温州市,瓯海区
931,浙江中医药大学滨江学院,1,0,2,0,0,0,0,0,本科,30.17632,120.14704,浙江省,杭州市,滨江区
932,杭州师范大学钱江学院,1,0,2,0,0,0,0,0,本科,30.31632,120.39452,浙江省,杭州市,江干区
933,湖州师范学院求真学院,1,0,2,0,0,0,0,0,本科,30.87508,120.13444,浙江省,湖州市,吴兴区
934,绍兴文理学院元培学院,1,0,2,0,0,0,0,0,本科,30.06755,120.54118,浙江省,绍兴市,越城区
935,温州大学瓯江学院,1,0,2,0,0,0,0,0,本科,27.92705,120.70554,浙江省,温州市,瓯海区
936,浙江工商大学杭州商学院,1,0,2,0,0,0,0,0,本科,29.8269,119.74603,浙江省,杭州市,桐庐县
937,嘉兴学院南湖学院,1,0,2,0,0,0,0,0,本科,30.74313,120.72896,浙江省,嘉兴市,南湖区
938,中国计量大学现代科技学院,1,0,2,0,0,0,0,0,本科,30.31966,120.37676,浙江省,杭州市,江干区
939,浙江财经大学东方学院,1,0,2,0,0,0,0,0,本科,19.09614,108.65367,海南省,东方市,东方市
940,温州商学院,1,0,2,0,0,0,0,0,本科,27.91725,120.69131,浙江省,温州市,瓯海区
941,同济大学浙江学院,1,0,2,0,0,0,0,0,本科,30.7349,120.78563,浙江省,嘉兴市,南湖区
942,上海财经大学浙江学院,1,0,2,0,0,0,0,0,本科,31.23037,121.4737,上海市,上海市,黄浦区
943,浙江外国语学院,1,0,2,0,0,0,0,0,本科,30.21958,120.03499,浙江省,杭州市,西湖区
944,浙江音乐学院,1,0,2,0,0,0,0,0,本科,30.148231,120.052784,浙江省,杭州市,西湖区
945,宁波诺丁汉大学,1,0,2,0,0,0,0,0,本科,29.80043,121.56254,浙江省,宁波市,鄞州区
946,温州肯恩大学,1,0,2,0,0,0,0,0,本科,27.91637,120.65434,浙江省,温州市,瓯海区
947,宁波职业技术学院,1,1,0,0,0,0,0,0,专科,29.89269,121.82112,浙江省,宁波市,北仑区
948,温州职业技术学院,1,1,0,0,0,0,0,0,专科,28.00929,120.68104,浙江省,温州市,鹿城区
949,浙江交通职业技术学院,1,1,0,0,0,0,0,0,专科,30.34378,120.08908,浙江省,杭州市,余杭区
950,金华职业技术学院,1,1,0,0,0,0,0,0,专科,29.0619,119.6372,浙江省,金华市,婺城区
951,宁波城市职业技术学院,1,1,0,0,0,0,0,0,专科,29.80877,121.56949,浙江省,宁波市,鄞州区
952,浙江电力职业技术学院,1,1,0,0,0,0,0,0,专科,30.32034,120.15115,浙江省,杭州市,拱墅区
953,浙江同济科技职业学院,1,1,0,0,0,0,0,0,专科,30.24446,120.30931,浙江省,杭州市,萧山区
954,浙江工商职业技术学院,1,1,0,0,0,0,0,0,专科,29.86556,121.50635,浙江省,宁波市,鄞州区
955,台州职业技术学院,1,1,0,0,0,0,0,0,专科,28.65242,121.4017,浙江省,台州市,椒江区
956,浙江工贸职业技术学院,1,1,0,0,0,0,0,0,专科,28.00208,120.70037,浙江省,温州市,鹿城区
957,浙江医药高等专科学校,1,1,0,0,0,0,0,0,专科,29.82115,121.56112,浙江省,宁波市,鄞州区
958,浙江机电职业技术学院,1,1,0,0,0,0,0,0,专科,30.17423,120.15286,浙江省,杭州市,滨江区
959,浙江建设职业技术学院,1,1,0,0,0,0,0,0,专科,30.24656,120.2989,浙江省,杭州市,萧山区
960,浙江艺术职业学院,1,1,0,0,0,0,0,0,专科,30.17449,120.15586,浙江省,杭州市,滨江区
961,浙江经贸职业技术学院,1,1,0,0,0,0,0,0,专科,30.31624,120.38255,浙江省,杭州市,江干区
962,浙江商业职业技术学院,1,1,0,0,0,0,0,0,专科,30.17477,120.16315,浙江省,杭州市,滨江区
963,浙江经济职业技术学院,1,1,0,0,0,0,0,0,专科,30.30814,120.37889,浙江省,杭州市,江干区
964,浙江旅游职业学院,1,1,0,0,0,0,0,0,专科,30.24622,120.30543,浙江省,杭州市,萧山区
965,浙江育英职业技术学院,1,1,0,0,0,0,0,0,专科,30.30613,120.35324,浙江省,杭州市,江干区
966,浙江警官职业学院,1,1,0,0,0,0,0,0,专科,30.31298,120.36002,浙江省,杭州市,江干区
967,浙江金融职业学院,1,1,0,0,0,0,0,0,专科,30.31946,120.38317,浙江省,杭州市,江干区
968,浙江工业职业技术学院,1,1,0,0,0,0,0,0,专科,30.02917,120.5772,浙江省,绍兴市,越城区
969,杭州职业技术学院,1,1,0,0,0,0,0,0,专科,30.3204,120.35324,浙江省,杭州市,江干区
970,嘉兴职业技术学院,1,1,0,0,0,0,0,0,专科,30.74288,120.71292,浙江省,嘉兴市,南湖区
971,湖州职业技术学院,1,1,0,0,0,0,0,0,专科,30.87651,120.13113,浙江省,湖州市,吴兴区
972,绍兴职业技术学院,1,1,0,0,0,0,0,0,专科,29.98194,120.55919,浙江省,绍兴市,越城区
973,衢州职业技术学院,1,1,0,0,0,0,0,0,专科,28.97782,118.86629,浙江省,衢州市,柯城区
974,丽水职业技术学院,1,1,0,0,0,0,0,0,专科,28.47252,119.91019,浙江省,丽水市,莲都区
975,浙江东方职业技术学院,1,1,0,0,0,0,0,0,专科,19.09614,108.65367,海南省,东方市,东方市
976,义乌工商职业技术学院,1,1,0,0,0,0,0,0,专科,29.30558,120.07468,浙江省,金华市,义乌市
977,浙江纺织服装职业技术学院,1,1,0,0,0,0,0,0,专科,29.91429,121.62358,浙江省,宁波市,镇海区
978,杭州科技职业技术学院,1,1,0,0,0,0,0,0,专科,30.08657,119.8994,浙江省,杭州市,富阳区
979,浙江长征职业技术学院,1,1,0,0,0,0,0,0,专科,30.20654,120.01806,浙江省,杭州市,西湖区
980,嘉兴南洋职业技术学院,1,1,0,0,0,0,0,0,专科,30.78734,120.7039,浙江省,嘉兴市,秀洲区
981,浙江广厦建设职业技术学院,1,1,0,0,0,0,0,0,专科,29.29729,120.24378,浙江省,金华市,东阳市
982,杭州万向职业技术学院,1,1,0,0,0,0,0,0,专科,30.25382,120.07459,浙江省,杭州市,西湖区
983,浙江邮电职业技术学院,1,1,0,0,0,0,0,0,专科,29.9844,120.56094,浙江省,绍兴市,越城区
984,宁波卫生职业技术学院,1,1,0,0,0,0,0,0,专科,29.80704,121.56798,浙江省,宁波市,鄞州区
985,台州科技职业学院,1,1,0,0,0,0,0,0,专科,28.66627,121.26121,浙江省,台州市,黄岩区
986,浙江国际海运职业技术学院,1,1,0,0,0,0,0,0,专科,29.98949,122.18602,浙江省,舟山市,定海区
987,浙江体育职业技术学院,1,1,0,0,0,0,0,0,专科,31.01543,119.88169,浙江省,湖州市,长兴县
988,温州科技职业学院,1,1,0,0,0,0,0,0,专科,27.98248,120.63205,浙江省,温州市,瓯海区
989,浙江汽车职业技术学院,1,1,0,0,0,0,0,0,专科,28.87404,121.17008,浙江省,台州市,临海市
990,浙江横店影视职业学院,1,1,0,0,0,0,0,0,专科,29.14598,120.32966,浙江省,金华市,东阳市
991,浙江农业商贸职业学院,1,1,0,0,0,0,0,0,专科,30.07065,120.64519,浙江省,绍兴市,越城区
992,浙江特殊教育职业学院,1,1,0,0,0,0,0,0,专科,30.20685,120.01532,浙江省,杭州市,西湖区
993,浙江安防职业技术学院,1,1,0,0,0,0,0,0,专科,27.91241,120.83533,浙江省,温州市,龙湾区
994,浙江舟山群岛新区旅游与健康职业学院,1,1,0,0,0,0,0,0,专科,29.91256,122.39609,浙江省,舟山市,普陀区
995,安徽大学,1,0,2,3,3,0,0,0,本科,31.84607,117.25535,安徽省,合肥市,蜀山区
996,中国科学技术大学,1,0,2,3,3,4,0,3,本科,31.83923,117.26328,安徽省,合肥市,蜀山区
997,合肥工业大学,1,0,2,3,3,0,0,0,本科,31.84471,117.29544,安徽省,合肥市,包河区
998,安徽工业大学,1,0,2,0,0,0,0,0,本科,31.84471,117.29544,安徽省,合肥市,包河区
999,安徽理工大学,1,0,2,0,0,0,0,0,本科,32.63334,117.01084,安徽省,淮南市,田家庵区
1000,安徽工程大学,1,0,2,0,0,0,0,0,本科,31.33882,118.41154,安徽省,芜湖市,鸠江区
1001,安徽农业大学,1,0,2,0,0,0,0,0,本科,31.86047,117.25841,安徽省,合肥市,蜀山区
1002,安徽医科大学,1,0,2,0,0,0,0,0,本科,31.84942,117.26274,安徽省,合肥市,蜀山区
1003,蚌埠医学院,1,0,2,0,0,0,0,0,本科,32.903646,117.42864,安徽省,蚌埠市,龙子湖区
1004,皖南医学院,1,0,2,0,0,0,0,0,本科,31.28798,118.36117,安徽省,芜湖市,弋江区
1005,安徽中医药大学,1,0,2,0,0,0,0,0,本科,31.85374,117.26156,安徽省,合肥市,蜀山区
1006,安徽师范大学,1,0,2,0,0,0,0,0,本科,33.98344,116.81077,安徽省,淮北市,相山区
1007,阜阳师范学院,1,0,2,0,0,0,0,0,本科,32.89192,115.78564,安徽省,阜阳市,颍州区
1008,安庆师范大学,1,0,2,0,0,0,0,0,本科,30.51438,117.04852,安徽省,安庆市,迎江区
1009,淮北师范大学,1,0,2,0,0,0,0,0,本科,33.98344,116.81077,安徽省,淮北市,相山区
1010,黄山学院,1,0,2,0,0,0,0,0,本科,29.71409,118.29198,安徽省,黄山市,屯溪区
1011,皖西学院,1,0,2,0,0,0,0,0,本科,31.76133,116.48365,安徽省,六安市,裕安区
1012,滁州学院,1,0,2,0,0,0,0,0,本科,32.276275,118.317093,安徽省,滁州市,琅琊区
1013,安徽财经大学,1,0,2,0,0,0,0,0,本科,32.90509,117.4251,安徽省,蚌埠市,龙子湖区
1014,宿州学院,1,0,2,0,0,0,0,0,本科,33.63345,117.07691,安徽省,宿州市,埇桥区
1015,巢湖学院,1,0,2,0,0,0,0,0,本科,31.64992,117.92934,安徽省,合肥市,巢湖市
1016,淮南师范学院,1,0,2,0,0,0,0,0,本科,32.61385,116.96038,安徽省,淮南市,田家庵区
1017,铜陵学院,1,0,2,0,0,0,0,0,本科,30.93451,117.82653,安徽省,铜陵市,铜官区
1018,安徽建筑大学,1,0,2,0,0,0,0,0,本科,31.7434,117.22322,安徽省,合肥市,蜀山区
1019,安徽科技学院,1,0,2,0,0,0,0,0,本科,32.87257,117.56645,安徽省,滁州市,凤阳县
1020,安徽三联学院,1,0,2,0,0,0,0,0,本科,31.7529,117.19591,安徽省,合肥市,蜀山区
1021,合肥学院,1,0,2,0,0,0,0,0,本科,31.84098,117.26433,安徽省,合肥市,蜀山区
1022,蚌埠学院,1,0,2,0,0,0,0,0,本科,32.88987,117.4231,安徽省,蚌埠市,龙子湖区
1023,池州学院,1,0,2,0,0,0,0,0,本科,30.6441,117.56628,安徽省,池州市,贵池区
1024,安徽新华学院,1,0,2,0,0,0,0,0,本科,31.82728,117.18491,安徽省,合肥市,蜀山区
1025,安徽文达信息工程学院,1,0,2,0,0,0,0,0,本科,31.74286,117.0191,安徽省,合肥市,肥西县
1026,亳州学院,1,0,2,0,0,0,0,0,本科,33.8028,115.76952,安徽省,亳州市,谯城区
1027,安徽外国语学院,1,0,2,0,0,0,0,0,本科,31.73957,117.02377,安徽省,合肥市,肥西县
1028,安徽财经大学商学院,1,0,2,0,0,0,0,0,本科,32.92339,117.39519,安徽省,蚌埠市,蚌山区
1029,安徽大学江淮学院,1,0,2,0,0,0,0,0,本科,31.84441,117.25431,安徽省,合肥市,蜀山区
1030,安徽信息工程学院,1,0,2,0,0,0,0,0,本科,31.13552,118.63365,安徽省,芜湖市,芜湖县
1031,安徽工业大学工商学院,1,0,2,0,0,0,0,0,本科,31.69159,118.5129,安徽省,马鞍山市,花山区
1032,安徽建筑大学城市建设学院,1,0,2,0,0,0,0,0,本科,31.60603,117.59805,安徽省,合肥市,巢湖市
1033,安徽农业大学经济技术学院,1,0,2,0,0,0,0,0,本科,31.77046,117.2121,安徽省,合肥市,蜀山区
1034,安徽师范大学皖江学院,1,0,2,0,0,0,0,0,本科,31.43823,118.40589,安徽省,芜湖市,鸠江区
1035,安徽医科大学临床医学院,1,0,2,0,0,0,0,0,本科,31.84812,117.26554,安徽省,合肥市,蜀山区
1036,阜阳师范学院信息工程学院,1,0,2,0,0,0,0,0,本科,32.89269,115.80552,安徽省,阜阳市,颍州区
1037,淮北师范大学信息学院,1,0,2,0,0,0,0,0,本科,33.98146,116.81272,安徽省,淮北市,相山区
1038,合肥师范学院,1,0,2,0,0,0,0,0,本科,31.85563,117.27558,安徽省,合肥市,庐阳区
1039,河海大学文天学院,1,0,2,0,0,0,0,0,本科,31.66311,118.55077,安徽省,马鞍山市,雨山区
1040,安徽职业技术学院,1,1,0,0,0,0,0,0,专科,31.2786,118.36878,安徽省,芜湖市,弋江区
1041,淮北职业技术学院,1,1,0,0,0,0,0,0,专科,33.94568,116.79273,安徽省,淮北市,相山区
1042,芜湖职业技术学院,1,1,0,0,0,0,0,0,专科,31.2786,118.36878,安徽省,芜湖市,弋江区
1043,淮南联合大学,1,1,0,0,0,0,0,0,专科,32.61315,116.95008,安徽省,淮南市,田家庵区
1044,安徽商贸职业技术学院,1,1,0,0,0,0,0,0,专科,31.28876,118.36774,安徽省,芜湖市,弋江区
1045,安徽水利水电职业技术学院,1,1,0,0,0,0,0,0,专科,31.82572,117.42727,安徽省,合肥市,肥东县
1046,阜阳职业技术学院,1,1,0,0,0,0,0,0,专科,32.88636,115.79349,安徽省,阜阳市,颍州区
1047,铜陵职业技术学院,1,1,0,0,0,0,0,0,专科,30.96232,117.86154,安徽省,铜陵市,铜官区
1048,民办万博科技职业学院,1,1,0,0,0,0,0,0,专科,民办,0,,,
1049,安徽警官职业学院,1,1,0,0,0,0,0,0,专科,31.87503,117.22434,安徽省,合肥市,蜀山区
1050,淮南职业技术学院,1,1,0,0,0,0,0,0,专科,32.62223,117.01196,安徽省,淮南市,田家庵区
1051,安徽工业经济职业技术学院,1,1,0,0,0,0,0,0,专科,31.81798,117.32775,安徽省,合肥市,包河区
1052,合肥通用职业技术学院,1,1,0,0,0,0,0,0,专科,31.85653,117.20356,安徽省,合肥市,蜀山区
1053,安徽工贸职业技术学院,1,1,0,0,0,0,0,0,专科,32.63871,116.99775,安徽省,淮南市,田家庵区
1054,宿州职业技术学院,1,1,0,0,0,0,0,0,专科,33.72452,116.97301,安徽省,宿州市,埇桥区
1055,六安职业技术学院,1,1,0,0,0,0,0,0,专科,31.83163,116.5441,安徽省,六安市,金安区
1056,安徽电子信息职业技术学院,1,1,0,0,0,0,0,0,专科,32.89745,117.42328,安徽省,蚌埠市,龙子湖区
1057,民办合肥经济技术职业学院,1,1,0,0,0,0,0,0,专科,31.82057,117.22901,安徽省,合肥市,蜀山区
1058,安徽交通职业技术学院,1,1,0,0,0,0,0,0,专科,31.83059,117.29905,安徽省,合肥市,包河区
1059,安徽体育运动职业技术学院,1,1,0,0,0,0,0,0,专科,31.77108,117.35061,安徽省,合肥市,包河区
1060,安徽中医药高等专科学校,1,1,0,0,0,0,0,0,专科,31.30022,118.37564,安徽省,芜湖市,弋江区
1061,安徽医学高等专科学校,1,1,0,0,0,0,0,0,专科,31.78645,117.22626,安徽省,合肥市,蜀山区
1062,合肥职业技术学院,1,1,0,0,0,0,0,0,专科,31.613,117.9098,安徽省,合肥市,巢湖市
1063,滁州职业技术学院,1,1,0,0,0,0,0,0,专科,32.2836,118.3181,安徽省,滁州市,琅琊区
1064,池州职业技术学院,1,1,0,0,0,0,0,0,专科,30.6602,117.47561,安徽省,池州市,贵池区
1065,宣城职业技术学院,1,1,0,0,0,0,0,0,专科,30.90954,118.72978,安徽省,宣城市,宣州区
1066,安徽广播影视职业技术学院,1,1,0,0,0,0,0,0,专科,31.92995,117.37188,安徽省,合肥市,瑶海区
1067,民办合肥滨湖职业技术学院,1,1,0,0,0,0,0,0,专科,31.82057,117.22901,安徽省,合肥市,蜀山区
1068,安徽电气工程职业技术学院,1,1,0,0,0,0,0,0,专科,31.81365,117.30162,安徽省,合肥市,包河区
1069,安徽冶金科技职业学院,1,1,0,0,0,0,0,0,专科,31.6605,118.49582,安徽省,马鞍山市,雨山区
1070,安徽城市管理职业学院,1,1,0,0,0,0,0,0,专科,31.76082,117.23438,安徽省,合肥市,蜀山区
1071,安徽机电职业技术学院,1,1,0,0,0,0,0,0,专科,31.28304,118.36124,安徽省,芜湖市,弋江区
1072,安徽工商职业学院,1,1,0,0,0,0,0,0,专科,31.95969,117.26091,安徽省,合肥市,长丰县
1073,安徽中澳科技职业学院,1,1,0,0,0,0,0,0,专科,31.87734,117.25204,安徽省,合肥市,庐阳区
1074,阜阳科技职业学院,1,1,0,0,0,0,0,0,专科,32.89717,115.78834,安徽省,阜阳市,颍州区
1075,亳州职业技术学院,1,1,0,0,0,0,0,0,专科,33.84364,115.76972,安徽省,亳州市,谯城区
1076,安徽国防科技职业学院,1,1,0,0,0,0,0,0,专科,31.73473,116.51007,安徽省,六安市,裕安区
1077,安庆职业技术学院,1,1,0,0,0,0,0,0,专科,30.53583,117.13111,安徽省,安庆市,迎江区
1078,安徽艺术职业学院,1,1,0,0,0,0,0,0,专科,31.77541,117.21444,安徽省,合肥市,蜀山区
1079,马鞍山师范高等专科学校,1,1,0,0,0,0,0,0,专科,31.65542,118.49622,安徽省,马鞍山市,雨山区
1080,安徽财贸职业学院,1,1,0,0,0,0,0,0,专科,31.7527,117.18139,安徽省,合肥市,肥西县
1081,安徽国际商务职业学院,1,1,0,0,0,0,0,0,专科,31.98734,117.26966,安徽省,合肥市,长丰县
1082,安徽公安职业学院,1,1,0,0,0,0,0,0,专科,31.8308,117.17726,安徽省,合肥市,蜀山区
1083,安徽林业职业技术学院,1,1,0,0,0,0,0,0,专科,31.84124,117.18856,安徽省,合肥市,蜀山区
1084,安徽审计职业学院,1,1,0,0,0,0,0,0,专科,31.72464,117.25673,安徽省,合肥市,包河区
1085,安徽新闻出版职业技术学院,1,1,0,0,0,0,0,0,专科,31.77743,117.24323,安徽省,合肥市,蜀山区
1086,安徽邮电职业技术学院,1,1,0,0,0,0,0,0,专科,31.8491,117.23218,安徽省,合肥市,蜀山区
1087,安徽工业职业技术学院,1,1,0,0,0,0,0,0,专科,30.9345,117.8001,安徽省,铜陵市,铜官区
1088,民办合肥财经职业学院,1,1,0,0,0,0,0,0,专科,31.82057,117.22901,安徽省,合肥市,蜀山区
1089,安庆医药高等专科学校,1,1,0,0,0,0,0,0,专科,30.60926,116.97522,安徽省,安庆市,宜秀区
1090,安徽涉外经济职业学院,1,1,0,0,0,0,0,0,专科,31.93207,117.39311,安徽省,合肥市,瑶海区
1091,安徽绿海商务职业学院,1,1,0,0,0,0,0,0,专科,31.74945,117.19846,安徽省,合肥市,蜀山区
1092,合肥共达职业技术学院,1,1,0,0,0,0,0,0,专科,31.96392,117.31292,安徽省,合肥市,瑶海区
1093,蚌埠经济技术职业学院,1,1,0,0,0,0,0,0,专科,33.15121,117.3691,安徽省,蚌埠市,固镇县
1094,民办安徽旅游职业学院,1,1,0,0,0,0,0,0,专科,民办,0,,,
1095,徽商职业学院,1,1,0,0,0,0,0,0,专科,31.75065,117.03151,安徽省,合肥市,肥西县
1096,马鞍山职业技术学院,1,1,0,0,0,0,0,0,专科,31.66201,118.55823,安徽省,马鞍山市,雨山区
1097,安徽现代信息工程职业学院,1,1,0,0,0,0,0,0,专科,32.55469,116.79215,安徽省,淮南市,寿县
1098,安徽矿业职业技术学院,1,1,0,0,0,0,0,0,专科,33.94913,116.7891,安徽省,淮北市,相山区
1099,合肥信息技术职业学院,1,1,0,0,0,0,0,0,专科,31.75892,117.17359,安徽省,合肥市,肥西县
1100,桐城师范高等专科学校,1,1,0,0,0,0,0,0,专科,31.04805,116.94284,安徽省,安庆市,桐城市
1101,黄山职业技术学院,1,1,0,0,0,0,0,0,专科,29.6919,118.27381,安徽省,黄山市,屯溪区
1102,滁州城市职业学院,1,1,0,0,0,0,0,0,专科,32.87694,117.56264,安徽省,滁州市,凤阳县
1103,安徽汽车职业技术学院,1,1,0,0,0,0,0,0,专科,31.74031,117.2722,安徽省,合肥市,包河区
1104,皖西卫生职业学院,1,1,0,0,0,0,0,0,专科,31.76733,116.53183,安徽省,六安市,金安区
1105,合肥幼儿师范高等专科学校,1,1,0,0,0,0,0,0,专科,31.92106,117.37504,安徽省,合肥市,瑶海区
1106,安徽长江职业学院,1,1,0,0,0,0,0,0,专科,31.60483,117.59812,安徽省,合肥市,巢湖市
1107,安徽扬子职业技术学院,1,1,0,0,0,0,0,0,专科,31.2257,118.27729,安徽省,芜湖市,三山区
1108,安徽黄梅戏艺术职业学院,1,1,0,0,0,0,0,0,专科,30.61865,116.98405,安徽省,安庆市,宜秀区
1109,安徽粮食工程职业学院,1,1,0,0,0,0,0,0,专科,31.91725,117.39321,安徽省,合肥市,瑶海区
1110,安徽人口职业学院,1,1,0,0,0,0,0,0,专科,30.63603,117.5664,安徽省,池州市,贵池区
1111,合肥科技职业学院,1,1,0,0,0,0,0,0,专科,31.74693,117.03149,安徽省,合肥市,肥西县
1112,皖北卫生职业学院,1,1,0,0,0,0,0,0,专科,33.62639,117.07877,安徽省,宿州市,埇桥区
1113,阜阳幼儿师范高等专科学校,1,1,0,0,0,0,0,0,专科,32.88963,115.81495,安徽省,阜阳市,颍州区
1114,厦门大学,1,0,2,3,3,0,0,3,本科,24.43834,118.09457,福建省,厦门市,思明区
1115,华侨大学,1,0,2,0,0,0,0,0,本科,24.93432,118.64526,福建省,泉州市,丰泽区
1116,福州大学,1,0,2,3,3,0,0,0,本科,26.05981,119.19781,福建省,福州市,闽侯县
1117,福建工程学院,1,0,2,0,0,0,0,0,本科,26.02802,119.19936,福建省,福州市,闽侯县
1118,福建农林大学,1,0,2,0,0,0,0,0,本科,26.08226,119.23975,福建省,福州市,仓山区
1119,集美大学,1,0,2,0,0,0,0,0,本科,24.57982,118.09537,福建省,厦门市,集美区
1120,福建医科大学,1,0,2,0,0,0,0,0,本科,26.06746,119.2995,福建省,福州市,台江区
1121,福建中医药大学,1,0,2,0,0,0,0,0,本科,26.07327,119.18088,福建省,福州市,闽侯县
1122,福建师范大学,1,0,2,0,0,0,0,0,本科,26.02712,119.20992,福建省,福州市,闽侯县
1123,闽江学院,1,0,2,0,0,0,0,0,本科,26.06363,119.16946,福建省,福州市,闽侯县
1124,武夷学院,1,0,2,0,0,0,0,0,本科,27.72708,118.00442,福建省,南平市,武夷山市
1125,宁德师范学院,1,0,2,0,0,0,0,0,本科,26.63759,119.53847,福建省,宁德市,蕉城区
1126,泉州师范学院,1,0,2,0,0,0,0,0,本科,24.86721,118.66959,福建省,泉州市,丰泽区
1127,闽南师范大学,1,0,2,0,0,0,0,0,本科,24.50763,117.64516,福建省,漳州市,芗城区
1128,厦门理工学院,1,0,2,0,0,0,0,0,本科,24.62358,118.08728,福建省,厦门市,集美区
1129,三明学院,1,0,2,0,0,0,0,0,本科,26.19877,117.5649,福建省,三明市,三元区
1130,龙岩学院,1,0,2,0,0,0,0,0,本科,25.03023,117.02327,福建省,龙岩市,新罗区
1131,福建商学院,1,0,2,0,0,0,0,0,本科,26.11753,119.2916,福建省,福州市,鼓楼区
1132,福建警察学院,1,0,2,0,0,0,0,0,本科,26.03532,119.19045,福建省,福州市,闽侯县
1133,莆田学院,1,0,2,0,0,0,0,0,本科,25.44344,119.01042,福建省,莆田市,城厢区
1134,仰恩大学,1,0,2,0,0,0,0,0,本科,25.11077,118.61567,福建省,泉州市,洛江区
1135,厦门医学院,1,0,2,0,0,0,0,0,本科,24.47957,118.09001,福建省,厦门市,思明区
1136,厦门华厦学院,1,0,2,0,0,0,0,0,本科,24.47951,118.08948,福建省,厦门市,思明区
1137,闽南理工学院,1,0,2,0,0,0,0,0,本科,24.71504,118.66613,福建省,泉州市,石狮市
1138,福建师范大学闽南科技学院,1,0,2,0,0,0,0,0,本科,25.03584,118.48105,福建省,泉州市,南安市
1139,福建农林大学东方学院,1,0,2,0,0,0,0,0,本科,19.09614,108.65367,海南省,东方市,东方市
1140,厦门工学院,1,0,2,0,0,0,0,0,本科,24.61687,118.06846,福建省,厦门市,集美区
1141,阳光学院,1,0,2,0,0,0,0,0,本科,26.00389,119.4473,福建省,福州市,马尾区
1142,厦门大学嘉庚学院,1,0,2,0,0,0,0,0,本科,24.43834,118.09457,福建省,厦门市,思明区
1143,福州大学至诚学院,1,0,2,0,0,0,0,0,本科,26.07479,119.27208,福建省,福州市,鼓楼区
1144,集美大学诚毅学院,1,0,2,0,0,0,0,0,本科,24.59109,118.09433,福建省,厦门市,集美区
1145,福建师范大学协和学院,1,0,2,0,0,0,0,0,本科,26.02323,119.2066,福建省,福州市,闽侯县
1146,福州外语外贸学院,1,0,2,0,0,0,0,0,本科,25.92412,119.49932,福建省,福州市,长乐市
1147,福建江夏学院,1,0,2,0,0,0,0,0,本科,26.06664,119.19469,福建省,福州市,闽侯县
1148,泉州信息工程学院,1,0,2,0,0,0,0,0,本科,24.94335,118.58644,福建省,泉州市,丰泽区
1149,福州理工学院,1,0,2,0,0,0,0,0,本科,26.23722,119.47146,福建省,福州市,连江县
1150,福建农林大学金山学院,1,0,2,0,0,0,0,0,本科,26.08226,119.23975,福建省,福州市,仓山区
1151,福建船政交通职业学院,1,1,0,0,0,0,0,0,专科,26.02768,119.31209,福建省,福州市,仓山区
1152,漳州职业技术学院,1,1,0,0,0,0,0,0,专科,24.52301,117.63768,福建省,漳州市,芗城区
1153,闽西职业技术学院,1,1,0,0,0,0,0,0,专科,25.06321,117.0324,福建省,龙岩市,新罗区
1154,黎明职业大学,1,1,0,0,0,0,0,0,专科,24.87978,118.62733,福建省,泉州市,丰泽区
1155,福建华南女子职业学院,1,1,0,0,0,0,0,0,专科,26.02455,119.20229,福建省,福州市,闽侯县
1156,福州职业技术学院,1,1,0,0,0,0,0,0,专科,26.07402,119.16028,福建省,福州市,闽侯县
1157,福建林业职业技术学院,1,1,0,0,0,0,0,0,专科,26.58351,118.25788,福建省,南平市,延平区
1158,福建信息职业技术学院,1,1,0,0,0,0,0,0,专科,25.99479,119.34948,福建省,福州市,仓山区
1159,福建水利电力职业技术学院,1,1,0,0,0,0,0,0,专科,25.93543,117.36096,福建省,三明市,永安市
1160,福建电力职业技术学院,1,1,0,0,0,0,0,0,专科,25.01988,118.63626,福建省,泉州市,洛江区
1161,厦门海洋职业技术学院,1,1,0,0,0,0,0,0,专科,24.59289,118.25408,福建省,厦门市,翔安区
1162,福建农业职业技术学院,1,1,0,0,0,0,0,0,专科,25.83041,119.30804,福建省,福州市,福清市
1163,福建卫生职业技术学院,1,1,0,0,0,0,0,0,专科,26.14164,119.17168,福建省,福州市,闽侯县
1164,泉州医学高等专科学校,1,1,0,0,0,0,0,0,专科,24.92956,118.67077,福建省,泉州市,洛江区
1165,福州英华职业学院,1,1,0,0,0,0,0,0,专科,25.97865,119.39183,福建省,福州市,仓山区
1166,泉州纺织服装职业学院,1,1,0,0,0,0,0,0,专科,24.73688,118.66974,福建省,泉州市,石狮市
1167,泉州华光职业学院,1,1,0,0,0,0,0,0,专科,24.95807,118.7001,福建省,泉州市,惠安县
1168,泉州理工职业学院,1,1,0,0,0,0,0,0,专科,24.88681,118.61224,福建省,泉州市,丰泽区
1169,福建警官职业学院,1,1,0,0,0,0,0,0,专科,26.07869,119.35546,福建省,福州市,晋安区
1170,闽北职业技术学院,1,1,0,0,0,0,0,0,专科,26.57885,118.25529,福建省,南平市,延平区
1171,福州黎明职业技术学院,1,1,0,0,0,0,0,0,专科,25.90654,119.17912,福建省,福州市,闽侯县
1172,厦门演艺职业学院,1,1,0,0,0,0,0,0,专科,24.63614,118.24724,福建省,厦门市,翔安区
1173,厦门华天涉外职业技术学院,1,1,0,0,0,0,0,0,专科,24.60351,118.24819,福建省,厦门市,翔安区
1174,福州科技职业技术学院,1,1,0,0,0,0,0,0,专科,26.07955,119.24689,福建省,福州市,仓山区
1175,泉州经贸职业技术学院,1,1,0,0,0,0,0,0,专科,24.90554,118.54056,福建省,泉州市,鲤城区
1176,福建对外经济贸易职业技术学院,1,1,0,0,0,0,0,0,专科,26.07366,119.50488,福建省,福州市,马尾区
1177,湄洲湾职业技术学院,1,1,0,0,0,0,0,0,专科,25.2673,118.85774,福建省,莆田市,仙游县
1178,福建生物工程职业技术学院,1,1,0,0,0,0,0,0,专科,26.01126,119.29437,福建省,福州市,仓山区
1179,福建艺术职业学院,1,1,0,0,0,0,0,0,专科,26.13927,119.15071,福建省,福州市,闽侯县
1180,福建幼儿师范高等专科学校,1,1,0,0,0,0,0,0,专科,24.87614,118.6582,福建省,泉州市,丰泽区
1181,厦门城市职业学院,1,1,0,0,0,0,0,0,专科,24.46325,118.1672,福建省,厦门市,思明区
1182,泉州工艺美术职业学院,1,1,0,0,0,0,0,0,专科,25.50229,118.23625,福建省,泉州市,德化县
1183,三明职业技术学院,1,1,0,0,0,0,0,0,专科,26.25249,117.63967,福建省,三明市,梅列区
1184,宁德职业技术学院,1,1,0,0,0,0,0,0,专科,27.09339,119.6559,福建省,宁德市,福安市
1185,福州软件职业技术学院,1,1,0,0,0,0,0,0,专科,26.10609,119.26143,福建省,福州市,闽侯县
1186,厦门兴才职业技术学院,1,1,0,0,0,0,0,0,专科,24.61541,118.03739,福建省,厦门市,集美区
1187,厦门软件职业技术学院,1,1,0,0,0,0,0,0,专科,24.61513,118.07417,福建省,厦门市,集美区
1188,福建体育职业技术学院,1,1,0,0,0,0,0,0,专科,26.11235,119.29957,福建省,福州市,鼓楼区
1189,漳州城市职业学院,1,1,0,0,0,0,0,0,专科,24.52487,117.63358,福建省,漳州市,芗城区
1190,厦门南洋职业学院,1,1,0,0,0,0,0,0,专科,24.47951,118.08948,福建省,厦门市,思明区
1191,厦门东海职业技术学院,1,1,0,0,0,0,0,0,专科,24.74436,118.17076,福建省,厦门市,同安区
1192,漳州科技职业学院,1,1,0,0,0,0,0,0,专科,24.07654,117.53524,福建省,漳州市,漳浦县
1193,漳州理工职业学院,1,1,0,0,0,0,0,0,专科,24.50207,117.7442,福建省,漳州市,龙文区
1194,武夷山职业学院,1,1,0,0,0,0,0,0,专科,27.71985,118.00287,福建省,南平市,武夷山市
1195,漳州卫生职业学院,1,1,0,0,0,0,0,0,专科,24.52705,117.63359,福建省,漳州市,芗城区
1196,泉州海洋职业学院,1,1,0,0,0,0,0,0,专科,24.76267,118.75277,福建省,泉州市,石狮市
1197,泉州轻工职业学院,1,1,0,0,0,0,0,0,专科,24.87389,118.67587,福建省,泉州市,丰泽区
1198,厦门安防科技职业学院,1,1,0,0,0,0,0,0,专科,24.58859,118.26194,福建省,厦门市,翔安区
1199,泉州幼儿师范高等专科学校,1,1,0,0,0,0,0,0,专科,24.87614,118.6582,福建省,泉州市,丰泽区
1200,闽江师范高等专科学校,1,1,0,0,0,0,0,0,专科,25.9938,119.37088,福建省,福州市,仓山区
1201,泉州工程职业技术学院,1,1,0,0,0,0,0,0,专科,24.96525,118.44556,福建省,泉州市,南安市
1202,南昌大学,1,0,2,3,3,0,0,0,本科,28.681675,115.937716,江西省,南昌市,青山湖区
1203,华东交通大学,1,0,2,0,0,0,0,0,本科,28.74419,115.86871,江西省,南昌市,青山湖区
1204,东华理工大学,1,0,2,0,0,0,0,0,本科,28.71955,115.82643,江西省,南昌市,青山湖区
1205,南昌航空大学,1,0,2,0,0,0,0,0,本科,28.65097,115.82857,江西省,南昌市,新建区
1206,江西理工大学,1,0,2,0,0,0,0,0,本科,25.83761,114.91808,江西省,赣州市,章贡区
1207,景德镇陶瓷大学,1,0,2,0,0,0,0,0,本科,28.96652,117.12015,江西省,景德镇市,乐平市
1208,江西农业大学,1,0,2,0,0,0,0,0,本科,28.76225,115.83283,江西省,南昌市,青山湖区
1209,江西中医药大学,1,0,2,0,0,0,0,0,本科,28.67471,115.75032,江西省,南昌市,湾里区
1210,赣南医学院,1,0,2,0,0,0,0,0,本科,25.77353,114.90318,江西省,赣州市,章贡区
1211,江西师范大学,1,0,2,0,0,0,0,0,本科,28.67698,115.92351,江西省,南昌市,东湖区
1212,上饶师范学院,1,0,2,0,0,0,0,0,本科,28.41773,117.97056,江西省,上饶市,信州区
1213,宜春学院,1,0,2,0,0,0,0,0,本科,27.79151,114.3577,江西省,宜春市,袁州区
1214,赣南师范大学,1,0,2,0,0,0,0,0,本科,25.79583,114.88649,江西省,赣州市,章贡区
1215,井冈山大学,1,0,2,0,0,0,0,0,本科,27.11035,115.03162,江西省,吉安市,青原区
1216,江西财经大学,1,0,2,0,0,0,0,0,本科,28.74538,115.85478,江西省,南昌市,青山湖区
1217,江西科技学院,1,0,2,0,0,0,0,0,本科,28.67977,116.01947,江西省,南昌市,南昌县
1218,景德镇学院,1,0,2,0,0,0,0,0,本科,29.2774,117.18349,江西省,景德镇市,昌江区
1219,萍乡学院,1,0,2,0,0,0,0,0,本科,27.62708,113.8786,江西省,萍乡市,安源区
1220,江西科技师范大学,1,0,2,0,0,0,0,0,本科,28.73692,115.83824,江西省,南昌市,青山湖区
1221,南昌工程学院,1,0,2,0,0,0,0,0,本科,28.68878,116.02987,江西省,南昌市,南昌县
1222,江西警察学院,1,0,2,0,0,0,0,0,本科,28.66397,115.75618,江西省,南昌市,新建区
1223,新余学院,1,0,2,0,0,0,0,0,本科,27.85692,114.99686,江西省,新余市,渝水区
1224,九江学院,1,0,2,0,0,0,0,0,本科,29.67666,116.01004,江西省,九江市,濂溪区
1225,江西工程学院,1,0,2,0,0,0,0,0,本科,27.81583,114.89893,江西省,新余市,渝水区
1226,南昌理工学院,1,0,2,0,0,0,0,0,本科,28.78255,115.85645,江西省,南昌市,青山湖区
1227,江西应用科技学院,1,0,2,0,0,0,0,0,本科,28.66612,115.70825,江西省,南昌市,新建区
1228,江西服装学院,1,0,2,0,0,0,0,0,本科,28.45264,115.9528,江西省,南昌市,南昌县
1229,南昌工学院,1,0,2,0,0,0,0,0,本科,28.61081,115.76006,江西省,南昌市,新建区
1230,南昌大学科学技术学院,1,0,2,0,0,0,0,0,本科,28.67732,115.94401,江西省,南昌市,青山湖区
1231,南昌大学共青学院,1,0,2,0,0,0,0,0,本科,28.68754,115.96128,江西省,南昌市,青山湖区
1232,华东交通大学理工学院,1,0,2,0,0,0,0,0,本科,28.70569,115.83138,江西省,南昌市,青山湖区
1233,东华理工大学长江学院,1,0,2,0,0,0,0,0,本科,27.98724,116.35151,江西省,抚州市,临川区
1234,南昌航空大学科技学院,1,0,2,0,0,0,0,0,本科,28.65731,115.94148,江西省,南昌市,青山湖区
1235,江西理工大学应用科学学院,1,0,2,0,0,0,0,0,本科,25.8357,114.91892,江西省,赣州市,章贡区
1236,景德镇陶瓷大学科技艺术学院,1,0,2,0,0,0,0,0,本科,28.96652,117.12015,江西省,景德镇市,乐平市
1237,江西农业大学南昌商学院,1,0,2,0,0,0,0,0,本科,28.75229,115.85205,江西省,南昌市,青山湖区
1238,江西中医药大学科技学院,1,0,2,0,0,0,0,0,本科,28.67985,115.75311,江西省,南昌市,湾里区
1239,江西师范大学科学技术学院,1,0,2,0,0,0,0,0,本科,28.67713,115.92353,江西省,南昌市,东湖区
1240,赣南师范大学科技学院,1,0,2,0,0,0,0,0,本科,25.84933,114.93167,江西省,赣州市,章贡区
1241,江西科技师范大学理工学院,1,0,2,0,0,0,0,0,本科,28.61393,115.75347,江西省,南昌市,新建区
1242,江西财经大学现代经济管理学院,1,0,2,0,0,0,0,0,本科,28.73316,115.83603,江西省,南昌市,青山湖区
1243,南昌师范学院,1,0,2,0,0,0,0,0,本科,28.72298,115.80246,江西省,南昌市,青山湖区
1244,江西工业职业技术学院,1,1,0,0,0,0,0,0,专科,28.69357,116.02508,江西省,南昌市,南昌县
1245,江西医学高等专科学校,1,1,0,0,0,0,0,0,专科,28.41935,117.97704,江西省,上饶市,信州区
1246,九江职业大学,1,1,0,0,0,0,0,0,专科,29.70209,115.96211,江西省,九江市,濂溪区
1247,九江职业技术学院,1,1,0,0,0,0,0,0,专科,29.67888,115.99163,江西省,九江市,濂溪区
1248,江西司法警官职业学院,1,1,0,0,0,0,0,0,专科,28.70948,115.8442,江西省,南昌市,青山湖区
1249,江西陶瓷工艺美术职业技术学院,1,1,0,0,0,0,0,0,专科,29.29422,117.24342,江西省,景德镇市,珠山区
1250,江西旅游商贸职业学院,1,1,0,0,0,0,0,0,专科,28.70588,115.79122,江西省,南昌市,新建区
1251,江西电力职业技术学院,1,1,0,0,0,0,0,0,专科,28.718,115.80853,江西省,南昌市,青山湖区
1252,江西环境工程职业学院,1,1,0,0,0,0,0,0,专科,25.88385,114.91502,江西省,赣州市,章贡区
1253,江西艺术职业学院,1,1,0,0,0,0,0,0,专科,28.75639,115.85909,江西省,南昌市,青山湖区
1254,鹰潭职业技术学院,1,1,0,0,0,0,0,0,专科,28.21679,117.0515,江西省,鹰潭市,月湖区
1255,江西信息应用职业技术学院,1,1,0,0,0,0,0,0,专科,28.58782,115.9071,江西省,南昌市,南昌县
1256,江西交通职业技术学院,1,1,0,0,0,0,0,0,专科,28.73479,115.85965,江西省,南昌市,青山湖区
1257,江西财经职业学院,1,1,0,0,0,0,0,0,专科,29.70623,115.99446,江西省,九江市,浔阳区
1258,江西应用技术职业学院,1,1,0,0,0,0,0,0,专科,25.80256,114.89396,江西省,赣州市,章贡区
1259,江西现代职业技术学院,1,1,0,0,0,0,0,0,专科,28.67156,115.99908,江西省,南昌市,南昌县
1260,江西工业工程职业技术学院,1,1,0,0,0,0,0,0,专科,27.65975,113.89957,江西省,萍乡市,安源区
1261,江西机电职业技术学院,1,1,0,0,0,0,0,0,专科,28.73597,115.8546,江西省,南昌市,青山湖区
1262,江西科技职业学院,1,1,0,0,0,0,0,0,专科,28.47815,115.95963,江西省,南昌市,南昌县
1263,南昌职业学院,1,1,0,0,0,0,0,0,专科,28.72339,115.73162,江西省,南昌市,湾里区
1264,江西外语外贸职业学院,1,1,0,0,0,0,0,0,专科,28.69978,116.031,江西省,南昌市,南昌县
1265,江西工业贸易职业技术学院,1,1,0,0,0,0,0,0,专科,28.65416,115.78709,江西省,南昌市,新建区
1266,宜春职业技术学院,1,1,0,0,0,0,0,0,专科,27.79767,114.36946,江西省,宜春市,袁州区
1267,江西应用工程职业学院,1,1,0,0,0,0,0,0,专科,27.62724,113.85437,江西省,萍乡市,安源区
1268,江西生物科技职业学院,1,1,0,0,0,0,0,0,专科,28.56248,115.94044,江西省,南昌市,南昌县
1269,江西建设职业技术学院,1,1,0,0,0,0,0,0,专科,28.57264,115.88203,江西省,南昌市,南昌县
1270,抚州职业技术学院,1,1,0,0,0,0,0,0,专科,27.98432,116.44573,江西省,抚州市,临川区
1271,南昌师范高等专科学校,1,1,0,0,0,0,0,0,专科,28.66416,115.7763,江西省,南昌市,新建区
1272,江西中医药高等专科学校,1,1,0,0,0,0,0,0,专科,27.94453,116.39672,江西省,抚州市,临川区
1273,江西先锋软件职业技术学院,1,1,0,0,0,0,0,0,专科,28.8982,115.81644,江西省,南昌市,湾里区
1274,江西经济管理职业学院,1,1,0,0,0,0,0,0,专科,28.6766,115.93475,江西省,南昌市,青山湖区
1275,江西制造职业技术学院,1,1,0,0,0,0,0,0,专科,28.67271,116.00342,江西省,南昌市,南昌县
1276,江西工程职业学院,1,1,0,0,0,0,0,0,专科,28.64923,115.8978,江西省,南昌市,西湖区
1277,江西青年职业学院,1,1,0,0,0,0,0,0,专科,28.75841,115.82831,江西省,南昌市,青山湖区
1278,上饶职业技术学院,1,1,0,0,0,0,0,0,专科,28.47757,117.90466,江西省,上饶市,上饶县
1279,江西航空职业技术学院,1,1,0,0,0,0,0,0,专科,28.49338,115.93402,江西省,南昌市,南昌县
1280,江西农业工程职业学院,1,1,0,0,0,0,0,0,专科,28.04713,115.55449,江西省,宜春市,樟树市
1281,赣西科技职业学院,1,1,0,0,0,0,0,0,专科,27.83093,114.9318,江西省,新余市,渝水区
1282,江西卫生职业学院,1,1,0,0,0,0,0,0,专科,28.5737,115.89275,江西省,南昌市,南昌县
1283,江西新能源科技职业学院,1,1,0,0,0,0,0,0,专科,27.832,115.01978,江西省,新余市,渝水区
1284,江西枫林涉外经贸职业学院,1,1,0,0,0,0,0,0,专科,28.68452,115.91407,江西省,南昌市,东湖区
1285,江西泰豪动漫职业学院,1,1,0,0,0,0,0,0,专科,28.57317,115.87654,江西省,南昌市,南昌县
1286,江西冶金职业技术学院,1,1,0,0,0,0,0,0,专科,27.79047,114.85149,江西省,新余市,渝水区
1287,江西管理职业学院,1,1,0,0,0,0,0,0,专科,28.50092,115.94993,江西省,南昌市,南昌县
1288,江西传媒职业学院,1,1,0,0,0,0,0,0,专科,28.74502,115.95724,江西省,南昌市,南昌县
1289,江西工商职业技术学院,1,1,0,0,0,0,0,0,专科,28.58737,115.882,江西省,南昌市,南昌县
1290,景德镇陶瓷职业技术学院,1,1,0,0,0,0,0,0,专科,29.36001,117.23467,江西省,景德镇市,浮梁县
1291,共青科技职业学院,1,1,0,0,0,0,0,0,专科,29.24799,115.77776,江西省,九江市,共青城市
1292,赣州师范高等专科学校,1,1,0,0,0,0,0,0,专科,25.7918,114.89652,江西省,赣州市,章贡区
1293,江西水利职业学院,1,1,0,0,0,0,0,0,专科,28.75126,115.87549,江西省,南昌市,青山湖区
1294,宜春幼儿师范高等专科学校,1,1,0,0,0,0,0,0,专科,27.81443,114.41612,江西省,宜春市,袁州区
1295,吉安职业技术学院,1,1,0,0,0,0,0,0,专科,27.09755,114.9264,江西省,吉安市,吉州区
1296,江西洪州职业学院,1,1,0,0,0,0,0,0,专科,28.2418,115.7715,江西省,宜春市,丰城市
1297,江西师范高等专科学校,1,1,0,0,0,0,0,0,专科,28.66416,115.7763,江西省,南昌市,新建区
1298,南昌影视传播职业学院,1,1,0,0,0,0,0,0,专科,28.74248,115.95542,江西省,南昌市,南昌县
1299,赣南卫生健康职业学院,1,1,0,0,0,0,0,0,专科,25.76997,114.89261,江西省,赣州市,章贡区
1300,山东大学,1,0,2,3,3,0,0,3,本科,36.67515,117.06044,山东省,济南市,历城区
1301,中国海洋大学,1,0,2,3,3,0,0,3,本科,36.16182,120.49784,山东省,青岛市,崂山区
1302,山东科技大学,1,0,2,0,0,0,0,0,本科,36.00334,120.12499,山东省,青岛市,黄岛区
1303,中国石油大学（华东）,1,0,2,0,0,0,0,0,本科,35.94322,120.17739,山东省,青岛市,黄岛区
1304,青岛科技大学,1,0,2,0,0,0,0,0,本科,36.117142,120.481677,山东省,青岛市,崂山区
1305,济南大学,1,0,2,0,0,0,0,0,本科,36.61532,116.96745,山东省,济南市,市中区
1306,青岛理工大学,1,0,2,0,0,0,0,0,本科,35.97547,120.20455,山东省,青岛市,黄岛区
1307,山东建筑大学,1,0,2,0,0,0,0,0,本科,36.68312,117.18367,山东省,济南市,历城区
1308,齐鲁工业大学,1,0,2,0,0,0,0,0,本科,36.55977,116.81119,山东省,济南市,长清区
1309,山东理工大学,1,0,2,0,0,0,0,0,本科,36.81077,117.99936,山东省,淄博市,张店区
1310,山东农业大学,1,0,2,0,0,0,0,0,本科,36.31932,120.39619,山东省,青岛市,城阳区
1311,青岛农业大学,1,0,2,0,0,0,0,0,本科,36.31932,120.39619,山东省,青岛市,城阳区
1312,潍坊医学院,1,0,2,0,0,0,0,0,本科,36.70535,119.13221,山东省,潍坊市,奎文区
1313,泰山医学院,1,0,2,0,0,0,0,0,本科,36.13168,117.0899,山东省,泰安市,岱岳区
1314,滨州医学院,1,0,2,0,0,0,0,0,本科,37.37304,118.01298,山东省,滨州市,滨城区
1315,山东中医药大学,1,0,2,0,0,0,0,0,本科,36.65561,117.02327,山东省,济南市,历下区
1316,济宁医学院,1,0,2,0,0,0,0,0,本科,35.33746,116.58183,山东省,济宁市,任城区
1317,山东师范大学,1,0,2,0,0,0,0,0,本科,36.65205,117.04207,山东省,济南市,历下区
1318,曲阜师范大学,1,0,2,0,0,0,0,0,本科,35.44153,119.5394,山东省,日照市,东港区
1319,聊城大学,1,0,2,0,0,0,0,0,本科,36.43452,115.9961,山东省,聊城市,东昌府区
1320,德州学院,1,0,2,0,0,0,0,0,本科,37.47172,116.33264,山东省,德州市,德城区
1321,滨州学院,1,0,2,0,0,0,0,0,本科,37.38511,117.98919,山东省,滨州市,滨城区
1322,鲁东大学,1,0,2,0,0,0,0,0,本科,37.52267,121.35905,山东省,烟台市,芝罘区
1323,临沂大学,1,0,2,0,0,0,0,0,本科,35.11084,118.29069,山东省,临沂市,兰山区
1324,泰山学院,1,0,2,0,0,0,0,0,本科,36.22466,117.0363,山东省,泰安市,岱岳区
1325,济宁学院,1,0,2,0,0,0,0,0,本科,35.54871,116.95795,山东省,济宁市,曲阜市
1326,菏泽学院,1,0,2,0,0,0,0,0,本科,35.269046,115.463689,山东省,菏泽市,牡丹区
1327,山东财经大学,1,0,2,0,0,0,0,0,本科,36.64515,117.07255,山东省,济南市,历下区
1328,山东体育学院,1,0,2,0,0,0,0,0,本科,36.68427,117.19344,山东省,济南市,历城区
1329,山东艺术学院,1,0,2,0,0,0,0,0,本科,36.52262,116.82528,山东省,济南市,长清区
1330,齐鲁医药学院,1,0,2,0,0,0,0,0,本科,36.54106,117.84953,山东省,淄博市,博山区
1331,青岛滨海学院,1,0,2,0,0,0,0,0,本科,35.98181,120.16615,山东省,青岛市,黄岛区
1332,枣庄学院,1,0,2,0,0,0,0,0,本科,34.90095,117.53635,山东省,枣庄市,市中区
1333,山东工艺美术学院,1,0,2,0,0,0,0,0,本科,36.55308,116.83631,山东省,济南市,长清区
1334,青岛大学,1,0,2,0,0,0,0,0,本科,36.07029,120.42208,山东省,青岛市,崂山区
1335,烟台大学,1,0,2,0,0,0,0,0,本科,37.47342,121.45833,山东省,烟台市,莱山区
1336,潍坊学院,1,0,2,0,0,0,0,0,本科,36.71736,119.18009,山东省,潍坊市,奎文区
1337,山东警察学院,1,0,2,0,0,0,0,0,本科,36.65342,117.053,山东省,济南市,历下区
1338,山东交通学院,1,0,2,0,0,0,0,0,本科,36.53724,116.79414,山东省,济南市,长清区
1339,山东工商学院,1,0,2,0,0,0,0,0,本科,37.48563,121.44773,山东省,烟台市,莱山区
1340,山东女子学院,1,0,2,0,0,0,0,0,本科,36.55541,116.82504,山东省,济南市,长清区
1341,烟台南山学院,1,0,2,0,0,0,0,0,本科,37.59847,120.4917,山东省,烟台市,龙口市
1342,潍坊科技学院,1,0,2,0,0,0,0,0,本科,36.879551,118.771634,山东省,潍坊市,寿光市
1343,山东英才学院,1,0,2,0,0,0,0,0,本科,36.68603,117.32505,山东省,济南市,历城区
1344,青岛恒星科技学院,1,0,2,0,0,0,0,0,本科,36.06623,120.38299,山东省,青岛市,市南区
1345,青岛黄海学院,1,0,2,0,0,0,0,0,本科,35.92584,120.11083,山东省,青岛市,黄岛区
1346,山东现代学院,1,0,2,0,0,0,0,0,本科,36.71964,117.04416,山东省,济南市,历城区
1347,山东协和学院,1,0,2,0,0,0,0,0,本科,36.73167,117.26883,山东省,济南市,历城区
1348,烟台大学文经学院,1,0,2,0,0,0,0,0,本科,37.45522,121.47605,山东省,烟台市,莱山区
1349,聊城大学东昌学院,1,0,2,0,0,0,0,0,本科,36.45119,116.03979,山东省,聊城市,东昌府区
1350,青岛理工大学琴岛学院,1,0,2,0,0,0,0,0,本科,36.30608,120.50554,山东省,青岛市,城阳区
1351,山东师范大学历山学院,1,0,2,0,0,0,0,0,本科,36.62134,118.48586,山东省,潍坊市,青州市
1352,山东财经大学燕山学院,1,0,2,0,0,0,0,0,本科,36.65712,117.50964,山东省,济南市,章丘市
1353,中国石油大学胜利学院,1,0,2,0,0,0,0,0,本科,37.4651,118.53299,山东省,东营市,东营区
1354,山东科技大学泰山科技学院,1,0,2,0,0,0,0,0,本科,36.1826,117.06621,山东省,泰安市,岱岳区
1355,山东华宇工学院,1,0,2,0,0,0,0,0,本科,37.46486,116.35878,山东省,德州市,德城区
1356,青岛工学院,1,0,2,0,0,0,0,0,本科,36.24015,120.02,山东省,青岛市,胶州市
1357,青岛农业大学海都学院,1,0,2,0,0,0,0,0,本科,36.31932,120.39619,山东省,青岛市,城阳区
1358,齐鲁理工学院,1,0,2,0,0,0,0,0,本科,36.67699,117.54644,山东省,济南市,章丘市
1359,山东财经大学东方学院,1,0,2,0,0,0,0,0,本科,19.09614,108.65367,海南省,东方市,东方市
1360,济南大学泉城学院,1,0,2,0,0,0,0,0,本科,36.6305,117.01795,山东省,济南市,市中区
1361,山东政法学院,1,0,2,0,0,0,0,0,本科,36.66671,117.08815,山东省,济南市,历下区
1362,齐鲁师范学院,1,0,2,0,0,0,0,0,本科,36.65635,117.49721,山东省,济南市,章丘市
1363,山东青年政治学院,1,0,2,0,0,0,0,0,本科,36.67073,117.23953,山东省,济南市,历城区
1364,北京电影学院现代创意媒体学院,1,0,2,0,0,0,0,0,本科,39.97194,116.35592,北京市,北京市,海淀区
1365,山东管理学院,1,0,2,0,0,0,0,0,本科,36.53137,116.78682,山东省,济南市,长清区
1366,山东农业工程学院,1,0,2,0,0,0,0,0,本科,36.69468,117.0946,山东省,济南市,历城区
1367,山东医学高等专科学校,1,1,0,0,0,0,0,0,专科,35.13683,118.2892,山东省,临沂市,兰山区
1368,菏泽医学专科学校,1,1,0,0,0,0,0,0,专科,35.26928,115.47589,山东省,菏泽市,牡丹区
1369,山东商业职业技术学院,1,1,0,0,0,0,0,0,专科,36.68853,117.08237,山东省,济南市,历城区
1370,山东电力高等专科学校,1,1,0,0,0,0,0,0,专科,36.597772,117.030382,山东省,济南市,市中区
1371,日照职业技术学院,1,1,0,0,0,0,0,0,专科,35.46147,119.54158,山东省,日照市,东港区
1372,曲阜远东职业技术学院,1,1,0,0,0,0,0,0,专科,35.78004,117.11142,山东省,济宁市,曲阜市
1373,青岛职业技术学院,1,1,0,0,0,0,0,0,专科,35.97043,120.16042,山东省,青岛市,黄岛区
1374,威海职业学院,1,1,0,0,0,0,0,0,专科,37.44359,121.94168,山东省,威海市,环翠区
1375,山东职业学院,1,1,0,0,0,0,0,0,专科,36.63349,117.2618,山东省,济南市,历城区
1376,山东劳动职业技术学院,1,1,0,0,0,0,0,0,专科,36.64681,116.97257,山东省,济南市,槐荫区
1377,莱芜职业技术学院,1,1,0,0,0,0,0,0,专科,36.24307,117.73005,山东省,莱芜市,莱城区
1378,济宁职业技术学院,1,1,0,0,0,0,0,0,专科,35.43268,116.59237,山东省,济宁市,任城区
1379,潍坊职业学院,1,1,0,0,0,0,0,0,专科,36.71476,119.14196,山东省,潍坊市,奎文区
1380,烟台职业学院,1,1,0,0,0,0,0,0,专科,37.43559,121.53445,山东省,烟台市,莱山区
1381,东营职业学院,1,1,0,0,0,0,0,0,专科,37.43619,118.62296,山东省,东营市,东营区
1382,聊城职业技术学院,1,1,0,0,0,0,0,0,专科,36.48399,116.00086,山东省,聊城市,东昌府区
1383,滨州职业学院,1,1,0,0,0,0,0,0,专科,37.41542,117.9992,山东省,滨州市,滨城区
1384,山东科技职业学院,1,1,0,0,0,0,0,0,专科,35.10289,117.18811,山东省,枣庄市,滕州市
1385,山东服装职业学院,1,1,0,0,0,0,0,0,专科,36.2166,117.17401,山东省,泰安市,泰山区
1386,德州科技职业学院,1,1,0,0,0,0,0,0,专科,36.94253,116.61427,山东省,德州市,禹城市
1387,山东力明科技职业学院,1,1,0,0,0,0,0,0,专科,36.58198,116.89067,山东省,济南市,市中区
1388,山东圣翰财贸职业学院,1,1,0,0,0,0,0,0,专科,36.56673,116.85087,山东省,济南市,长清区
1389,山东水利职业学院,1,1,0,0,0,0,0,0,专科,35.45441,119.55218,山东省,日照市,东港区
1390,山东畜牧兽医职业学院,1,1,0,0,0,0,0,0,专科,36.7048,119.16805,山东省,潍坊市,奎文区
1391,青岛飞洋职业技术学院,1,1,0,0,0,0,0,0,专科,36.3175,120.32535,山东省,青岛市,城阳区
1392,东营科技职业学院,1,1,0,0,0,0,0,0,专科,36.99313,118.52263,山东省,东营市,广饶县
1393,山东交通职业学院,1,1,0,0,0,0,0,0,专科,36.67131,119.17551,山东省,潍坊市,奎文区
1394,淄博职业学院,1,1,0,0,0,0,0,0,专科,36.833056,117.928535,山东省,淄博市,周村区
1395,山东外贸职业学院,1,1,0,0,0,0,0,0,专科,36.17317,120.43574,山东省,青岛市,李沧区
1396,青岛酒店管理职业技术学院,1,1,0,0,0,0,0,0,专科,36.16929,120.48993,山东省,青岛市,李沧区
1397,山东信息职业技术学院,1,1,0,0,0,0,0,0,专科,36.71208,119.15428,山东省,潍坊市,奎文区
1398,青岛港湾职业技术学院,1,1,0,0,0,0,0,0,专科,35.81059,120.02373,山东省,青岛市,黄岛区
1399,山东胜利职业学院,1,1,0,0,0,0,0,0,专科,37.45418,118.50032,山东省,东营市,东营区
1400,山东经贸职业学院,1,1,0,0,0,0,0,0,专科,36.68338,119.09601,山东省,潍坊市,潍城区
1401,山东工业职业学院,1,1,0,0,0,0,0,0,专科,36.88372,118.08154,山东省,淄博市,桓台县
1402,山东化工职业学院,1,1,0,0,0,0,0,0,专科,36.814807,118.284719,山东省,淄博市,临淄区
1403,青岛求实职业技术学院,1,1,0,0,0,0,0,0,专科,36.06623,120.38299,山东省,青岛市,市南区
1404,济南职业学院,1,1,0,0,0,0,0,0,专科,36.63766,117.262773,山东省,济南市,历城区
1405,烟台工程职业技术学院,1,1,0,0,0,0,0,0,专科,37.5598,121.22627,山东省,烟台市,福山区
1406,山东凯文科技职业学院,1,1,0,0,0,0,0,0,专科,36.66683,117.50826,山东省,济南市,章丘市
1407,山东外国语职业学院,1,1,0,0,0,0,0,0,专科,35.4695,119.53358,山东省,日照市,东港区
1408,潍坊工商职业学院,1,1,0,0,0,0,0,0,专科,35.95958,119.49639,山东省,潍坊市,诸城市
1409,德州职业技术学院,1,1,0,0,0,0,0,0,专科,37.46007,116.35982,山东省,德州市,德城区
1410,枣庄科技职业学院,1,1,0,0,0,0,0,0,专科,35.10289,117.18811,山东省,枣庄市,滕州市
1411,淄博师范高等专科学校,1,1,0,0,0,0,0,0,专科,36.66053,117.89613,山东省,淄博市,淄川区
1412,山东中医药高等专科学校,1,1,0,0,0,0,0,0,专科,37.43995,121.63417,山东省,烟台市,牟平区
1413,济南工程职业技术学院,1,1,0,0,0,0,0,0,专科,36.66837,117.51205,山东省,济南市,章丘市
1414,山东电子职业技术学院,1,1,0,0,0,0,0,0,专科,36.66453,117.51964,山东省,济南市,章丘市
1415,山东旅游职业学院,1,1,0,0,0,0,0,0,专科,36.67292,117.53943,山东省,济南市,章丘市
1416,山东铝业职业学院,1,1,0,0,0,0,0,0,专科,36.75567,118.04797,山东省,淄博市,张店区
1417,山东杏林科技职业学院,1,1,0,0,0,0,0,0,专科,36.67699,117.54644,山东省,济南市,章丘市
1418,泰山职业技术学院,1,1,0,0,0,0,0,0,专科,36.22234,117.17531,山东省,泰安市,泰山区
1419,山东外事翻译职业学院,1,1,0,0,0,0,0,0,专科,36.87055,121.75051,山东省,威海市,乳山市
1420,山东药品食品职业学院,1,1,0,0,0,0,0,0,专科,37.43421,121.94139,山东省,威海市,环翠区
1421,山东商务职业学院,1,1,0,0,0,0,0,0,专科,37.42653,121.50948,山东省,烟台市,莱山区
1422,山东轻工职业学院,1,1,0,0,0,0,0,0,专科,36.77617,117.86058,山东省,淄博市,周村区
1423,山东城市建设职业学院,1,1,0,0,0,0,0,0,专科,36.64094,117.27239,山东省,济南市,历城区
1424,烟台汽车工程职业学院,1,1,0,0,0,0,0,0,专科,37.44849,121.24749,山东省,烟台市,福山区
1425,山东司法警官职业学院,1,1,0,0,0,0,0,0,专科,36.64336,117.5291,山东省,济南市,章丘市
1426,菏泽家政职业学院,1,1,0,0,0,0,0,0,专科,34.75927,116.09862,山东省,菏泽市,单县
1427,山东传媒职业学院,1,1,0,0,0,0,0,0,专科,36.6639,117.48238,山东省,济南市,章丘市
1428,临沂职业学院,1,1,0,0,0,0,0,0,专科,35.00906,118.28558,山东省,临沂市,罗庄区
1429,枣庄职业学院,1,1,0,0,0,0,0,0,专科,34.82737,117.29876,山东省,枣庄市,薛城区
1430,山东理工职业学院,1,1,0,0,0,0,0,0,专科,35.35545,116.57695,山东省,济宁市,任城区
1431,山东文化产业职业学院,1,1,0,0,0,0,0,0,专科,37.80929,120.70829,山东省,烟台市,蓬莱市
1432,青岛远洋船员职业学院,1,1,0,0,0,0,0,0,专科,36.07668,120.3952,山东省,青岛市,市南区
1433,济南幼儿师范高等专科学校,1,1,0,0,0,0,0,0,专科,36.49914,116.79751,山东省,济南市,长清区
1434,济南护理职业学院,1,1,0,0,0,0,0,0,专科,36.64145,117.22966,山东省,济南市,历城区
1435,泰山护理职业学院,1,1,0,0,0,0,0,0,专科,36.19198,117.13526,山东省,泰安市,泰山区
1436,山东海事职业学院,1,1,0,0,0,0,0,0,专科,37.08362,119.19312,山东省,潍坊市,寒亭区
1437,潍坊护理职业学院,1,1,0,0,0,0,0,0,专科,36.6158,118.49146,山东省,潍坊市,青州市
1438,潍坊工程职业学院,1,1,0,0,0,0,0,0,专科,36.63068,118.48303,山东省,潍坊市,青州市
1439,菏泽职业学院,1,1,0,0,0,0,0,0,专科,35.28118,115.47657,山东省,菏泽市,牡丹区
1440,山东艺术设计职业学院,1,1,0,0,0,0,0,0,专科,36.71068,117.05045,山东省,济南市,天桥区
1441,威海海洋职业学院,1,1,0,0,0,0,0,0,专科,37.060168,122.439096,山东省,威海市,荣成市
1442,山东特殊教育职业学院,1,1,0,0,0,0,0,0,专科,36.61683,116.96152,山东省,济南市,市中区
1443,烟台黄金职业学院,1,1,0,0,0,0,0,0,专科,37.52753,120.24309,山东省,烟台市,招远市
1444,华北水利水电大学,1,0,2,0,0,0,0,0,本科,34.78127,113.79531,河南省,郑州市,金水区
1445,郑州大学,1,0,2,3,3,0,0,0,本科,34.747432,113.636056,河南省,郑州市,二七区
1446,河南理工大学,1,0,2,0,0,0,0,0,本科,35.18807,113.26577,河南省,焦作市,山阳区
1447,郑州轻工业学院,1,0,2,0,0,0,0,0,本科,34.79713,113.65516,河南省,郑州市,金水区
1448,河南工业大学,1,0,2,0,0,0,0,0,本科,34.83053,113.55134,河南省,郑州市,中原区
1449,河南科技大学,1,0,2,0,0,0,0,0,本科,34.60319,112.41973,河南省,洛阳市,洛龙区
1450,中原工学院,1,0,2,0,0,0,0,0,本科,34.61187,113.72193,河南省,郑州市,新郑市
1451,河南农业大学,1,0,2,0,0,0,0,0,本科,34.40185,115.72059,河南省,商丘市,梁园区
1452,河南科技学院,1,0,2,0,0,0,0,0,本科,34.70814,113.50992,河南省,郑州市,二七区
1453,河南牧业经济学院,1,0,2,0,0,0,0,0,本科,34.80469,113.81502,河南省,郑州市,金水区
1454,河南中医药大学,1,0,2,0,0,0,0,0,本科,34.78113,113.80492,河南省,郑州市,金水区
1455,新乡医学院,1,0,2,0,0,0,0,0,本科,35.28514,113.93309,河南省,新乡市,红旗区
1456,河南大学,1,0,2,3,0,0,0,0,本科,34.81106,114.36938,河南省,开封市,顺河回族区
1457,河南师范大学,1,0,2,0,0,0,0,0,本科,35.32826,113.91316,河南省,新乡市,牧野区
1458,信阳师范学院,1,0,2,0,0,0,0,0,本科,32.13444,114.04126,河南省,信阳市,浉河区
1459,周口师范学院,1,0,2,0,0,0,0,0,本科,33.63497,114.68308,河南省,周口市,川汇区
1460,安阳师范学院,1,0,2,0,0,0,0,0,本科,36.07649,114.38659,河南省,安阳市,文峰区
1461,许昌学院,1,0,2,0,0,0,0,0,本科,34.039973,113.865702,河南省,许昌市,魏都区
1462,南阳师范学院,1,0,2,0,0,0,0,0,本科,32.99073,112.52851,河南省,南阳市,卧龙区
1463,洛阳师范学院,1,0,2,0,0,0,0,0,本科,34.65532,112.47261,河南省,洛阳市,洛龙区
1464,商丘师范学院,1,0,2,0,0,0,0,0,本科,34.43521,115.62237,河南省,商丘市,梁园区
1465,河南财经政法大学,1,0,2,0,0,0,0,0,本科,34.80337,113.66264,河南省,郑州市,金水区
1466,郑州航空工业管理学院,1,0,2,0,0,0,0,0,本科,34.716076,113.644109,河南省,郑州市,二七区
1467,黄淮学院,1,0,2,0,0,0,0,0,本科,33.00981,114.00672,河南省,驻马店市,驿城区
1468,平顶山学院,1,0,2,0,0,0,0,0,本科,33.74882,113.20913,河南省,平顶山市,新华区
1469,郑州工程技术学院,1,0,2,0,0,0,0,0,本科,34.861,113.65183,河南省,郑州市,惠济区
1470,洛阳理工学院,1,0,2,0,0,0,0,0,本科,34.610085,112.435826,河南省,洛阳市,洛龙区
1471,新乡学院,1,0,2,0,0,0,0,0,本科,35.29192,113.94147,河南省,新乡市,红旗区
1472,信阳农林学院,1,0,2,0,0,0,0,0,本科,32.16196,114.12395,河南省,信阳市,平桥区
1473,河南工学院,1,0,2,0,0,0,0,0,本科,34.41774,115.68597,河南省,商丘市,梁园区
1474,安阳工学院,1,0,2,0,0,0,0,0,本科,36.06549,114.34981,河南省,安阳市,文峰区
1475,河南工程学院,1,0,2,0,0,0,0,0,本科,34.61442,113.69592,河南省,郑州市,新郑市
1476,河南财政金融学院,1,0,2,0,0,0,0,0,本科,34.80434,113.80846,河南省,郑州市,金水区
1477,南阳理工学院,1,0,2,0,0,0,0,0,本科,32.96944,112.54991,河南省,南阳市,宛城区
1478,河南城建学院,1,0,2,0,0,0,0,0,本科,33.77371,113.18695,河南省,平顶山市,新华区
1479,河南警察学院,1,0,2,0,0,0,0,0,本科,34.79111,113.82054,河南省,郑州市,金水区
1480,黄河科技学院,1,0,2,0,0,0,0,0,本科,34.68927,113.67615,河南省,郑州市,管城回族区
1481,铁道警察学院,1,0,2,0,0,0,0,0,本科,34.78829,113.65199,河南省,郑州市,金水区
1482,郑州科技学院,1,0,2,0,0,0,0,0,本科,34.70814,113.50992,河南省,郑州市,二七区
1483,郑州工业应用技术学院,1,0,2,0,0,0,0,0,本科,34.41249,113.75793,河南省,郑州市,新郑市
1484,郑州师范学院,1,0,2,0,0,0,0,0,本科,34.859983,113.648557,河南省,郑州市,惠济区
1485,郑州财经学院,1,0,2,0,0,0,0,0,本科,34.86136,113.60437,河南省,郑州市,惠济区
1486,黄河交通学院,1,0,2,0,0,0,0,0,本科,35.08799,113.43166,河南省,焦作市,武陟县
1487,商丘工学院,1,0,2,0,0,0,0,0,本科,34.41774,115.68597,河南省,商丘市,梁园区
1488,河南大学民生学院,1,0,2,0,0,0,0,0,本科,34.82012,114.30099,河南省,开封市,龙亭区
1489,河南师范大学新联学院,1,0,2,0,0,0,0,0,本科,34.77954,113.85021,河南省,郑州市,中牟县
1490,信阳学院,1,0,2,0,0,0,0,0,本科,32.1414,114.03899,河南省,信阳市,浉河区
1491,安阳学院,1,0,2,0,0,0,0,0,本科,36.02464,114.39018,河南省,安阳市,文峰区
1492,新乡医学院三全学院,1,0,2,0,0,0,0,0,本科,35.28514,113.93309,河南省,新乡市,红旗区
1493,河南科技学院新科学院,1,0,2,0,0,0,0,0,本科,35.28205,113.93374,河南省,新乡市,红旗区
1494,郑州工商学院,1,0,2,0,0,0,0,0,本科,34.79152,113.88674,河南省,郑州市,中牟县
1495,中原工学院信息商务学院,1,0,2,0,0,0,0,0,本科,34.61187,113.72193,河南省,郑州市,新郑市
1496,商丘学院,1,0,2,0,0,0,0,0,本科,34.40185,115.72059,河南省,商丘市,梁园区
1497,郑州成功财经学院,1,0,2,0,0,0,0,0,本科,34.75822,113.02574,河南省,郑州市,巩义市
1498,郑州升达经贸管理学院,1,0,2,0,0,0,0,0,本科,34.59325,113.69098,河南省,郑州市,新郑市
1499,河南职业技术学院,1,1,0,0,0,0,0,0,专科,35.27926,114.04124,河南省,新乡市,延津县
1500,漯河职业技术学院,1,1,0,0,0,0,0,0,专科,33.56875,114.00922,河南省,漯河市,源汇区
1501,三门峡职业技术学院,1,1,0,0,0,0,0,0,专科,34.7901,111.16141,河南省,三门峡市,湖滨区
1502,郑州铁路职业技术学院,1,1,0,0,0,0,0,0,专科,34.79547,113.88725,河南省,郑州市,中牟县
1503,开封大学,1,1,0,0,0,0,0,0,专科,34.802022,114.31399,河南省,开封市,龙亭区
1504,焦作大学,1,1,0,0,0,0,0,0,专科,35.21345,113.27681,河南省,焦作市,山阳区
1505,濮阳职业技术学院,1,1,0,0,0,0,0,0,专科,35.76996,114.95587,河南省,濮阳市,华龙区
1506,郑州电力高等专科学校,1,1,0,0,0,0,0,0,专科,34.79864,113.89841,河南省,郑州市,中牟县
1507,黄河水利职业技术学院,1,1,0,0,0,0,0,0,专科,34.82699,114.31907,河南省,开封市,龙亭区
1508,许昌职业技术学院,1,1,0,0,0,0,0,0,专科,34.01668,113.88389,河南省,许昌市,魏都区
1509,河南工业和信息化职业学院,1,1,0,0,0,0,0,0,专科,35.19514,113.28641,河南省,焦作市,山阳区
1510,河南水利与环境职业学院,1,1,0,0,0,0,0,0,专科,34.80046,113.67992,河南省,郑州市,金水区
1511,商丘职业技术学院,1,1,0,0,0,0,0,0,专科,34.37279,115.65574,河南省,商丘市,睢阳区
1512,平顶山工业职业技术学院,1,1,0,0,0,0,0,0,专科,33.71034,113.28877,河南省,平顶山市,湛河区
1513,周口职业技术学院,1,1,0,0,0,0,0,0,专科,33.58615,114.64626,河南省,周口市,川汇区
1514,济源职业技术学院,1,1,0,0,0,0,0,0,专科,35.07604,112.60138,河南省,济源市,济源市
1515,河南司法警官职业学院,1,1,0,0,0,0,0,0,专科,34.8066,113.6606,河南省,郑州市,金水区
1516,鹤壁职业技术学院,1,1,0,0,0,0,0,0,专科,35.71443,114.28351,河南省,鹤壁市,浚县
1517,河南工业职业技术学院,1,1,0,0,0,0,0,0,专科,33.71034,113.28877,河南省,平顶山市,湛河区
1518,郑州澍青医学高等专科学校,1,1,0,0,0,0,0,0,专科,34.69875,113.53437,河南省,郑州市,二七区
1519,焦作师范高等专科学校,1,1,0,0,0,0,0,0,专科,35.21279,113.27176,河南省,焦作市,山阳区
1520,河南检察职业学院,1,1,0,0,0,0,0,0,专科,34.60766,113.70978,河南省,郑州市,新郑市
1521,河南质量工程职业学院,1,1,0,0,0,0,0,0,专科,33.71276,113.29084,河南省,平顶山市,湛河区
1522,郑州信息科技职业学院,1,1,0,0,0,0,0,0,专科,34.74725,113.62493,河南省,郑州市,中原区
1523,漯河医学高等专科学校,1,1,0,0,0,0,0,0,专科,33.5661,114.01295,河南省,漯河市,源汇区
1524,南阳医学高等专科学校,1,1,0,0,0,0,0,0,专科,32.96843,112.49465,河南省,南阳市,卧龙区
1525,商丘医学高等专科学校,1,1,0,0,0,0,0,0,专科,34.39515,115.61796,河南省,商丘市,睢阳区
1526,郑州电子信息职业技术学院,1,1,0,0,0,0,0,0,专科,34.70215,114.03135,河南省,郑州市,中牟县
1527,信阳职业技术学院,1,1,0,0,0,0,0,0,专科,32.16066,114.13125,河南省,信阳市,平桥区
1528,嵩山少林武术职业学院,1,1,0,0,0,0,0,0,专科,34.43253,113.03634,河南省,郑州市,登封市
1529,郑州工业安全职业学院,1,1,0,0,0,0,0,0,专科,34.52879,113.68519,河南省,郑州市,新郑市
1530,永城职业学院,1,1,0,0,0,0,0,0,专科,33.9138,116.45605,河南省,商丘市,永城市
1531,河南经贸职业学院,1,1,0,0,0,0,0,0,专科,34.80079,113.79756,河南省,郑州市,金水区
1532,河南交通职业技术学院,1,1,0,0,0,0,0,0,专科,34.78798,113.89424,河南省,郑州市,中牟县
1533,河南农业职业学院,1,1,0,0,0,0,0,0,专科,34.7242,114.01467,河南省,郑州市,中牟县
1534,郑州旅游职业学院,1,1,0,0,0,0,0,0,专科,34.72509,113.69696,河南省,郑州市,管城回族区
1535,郑州职业技术学院,1,1,0,0,0,0,0,0,专科,34.7654,113.45123,河南省,郑州市,荥阳市
1536,河南信息统计职业学院,1,1,0,0,0,0,0,0,专科,34.79881,113.68658,河南省,郑州市,金水区
1537,河南林业职业学院,1,1,0,0,0,0,0,0,专科,34.68789,112.49889,河南省,洛阳市,瀍河回族区
1538,河南工业贸易职业学院,1,1,0,0,0,0,0,0,专科,34.63108,113.68567,河南省,郑州市,新郑市
1539,郑州电力职业技术学院,1,1,0,0,0,0,0,0,专科,34.72156,113.99346,河南省,郑州市,中牟县
1540,周口科技职业学院,1,1,0,0,0,0,0,0,专科,33.63133,114.72797,河南省,周口市,川汇区
1541,河南建筑职业技术学院,1,1,0,0,0,0,0,0,专科,34.71225,113.52399,河南省,郑州市,二七区
1542,漯河食品职业学院,1,1,0,0,0,0,0,0,专科,33.60519,113.98922,河南省,漯河市,郾城区
1543,郑州城市职业学院,1,1,0,0,0,0,0,0,专科,34.54472,113.33944,河南省,郑州市,新密市
1544,安阳职业技术学院,1,1,0,0,0,0,0,0,专科,36.03593,114.38002,河南省,安阳市,文峰区
1545,新乡职业技术学院,1,1,0,0,0,0,0,0,专科,35.27926,114.04124,河南省,新乡市,延津县
1546,驻马店职业技术学院,1,1,0,0,0,0,0,0,专科,33.00248,114.00167,河南省,驻马店市,驿城区
1547,焦作工贸职业学院,1,1,0,0,0,0,0,0,专科,35.08379,112.91403,河南省,焦作市,沁阳市
1548,许昌陶瓷职业学院,1,1,0,0,0,0,0,0,专科,34.17343,113.49536,河南省,许昌市,禹州市
1549,郑州理工职业学院,1,1,0,0,0,0,0,0,专科,34.43917,113.709,河南省,郑州市,新郑市
1550,郑州信息工程职业学院,1,1,0,0,0,0,0,0,专科,34.74403,113.45978,河南省,郑州市,荥阳市
1551,长垣烹饪职业技术学院,1,1,0,0,0,0,0,0,专科,35.18336,114.66498,河南省,新乡市,长垣县
1552,开封文化艺术职业学院,1,1,0,0,0,0,0,0,专科,34.81679,114.33822,河南省,开封市,龙亭区
1553,河南应用技术职业学院,1,1,0,0,0,0,0,0,专科,34.77347,113.53988,河南省,郑州市,中原区
1554,河南艺术职业学院,1,1,0,0,0,0,0,0,专科,34.78307,113.89504,河南省,郑州市,中牟县
1555,河南机电职业学院,1,1,0,0,0,0,0,0,专科,34.59259,113.71693,河南省,郑州市,新郑市
1556,河南护理职业学院,1,1,0,0,0,0,0,0,专科,36.03147,114.38847,河南省,安阳市,文峰区
1557,许昌电气职业学院,1,1,0,0,0,0,0,0,专科,34.06981,113.85658,河南省,许昌市,魏都区
1558,信阳涉外职业技术学院,1,1,0,0,0,0,0,0,专科,31.67363,114.88313,河南省,信阳市,新县
1559,鹤壁汽车工程职业学院,1,1,0,0,0,0,0,0,专科,35.70445,114.31214,河南省,鹤壁市,浚县
1560,南阳职业学院,1,1,0,0,0,0,0,0,专科,33.30718,111.48456,河南省,南阳市,西峡县
1561,郑州商贸旅游职业学院,1,1,0,0,0,0,0,0,专科,34.76269,113.50228,河南省,郑州市,中原区
1562,河南推拿职业学院,1,1,0,0,0,0,0,0,专科,34.66253,112.39116,河南省,洛阳市,涧西区
1563,洛阳职业技术学院,1,1,0,0,0,0,0,0,专科,34.61702,112.37578,河南省,洛阳市,涧西区
1564,郑州幼儿师范高等专科学校,1,1,0,0,0,0,0,0,专科,34.7615,113.67119,河南省,郑州市,金水区
1565,安阳幼儿师范高等专科学校,1,1,0,0,0,0,0,0,专科,35.93728,114.38633,河南省,安阳市,汤阴县
1566,郑州黄河护理职业学院,1,1,0,0,0,0,0,0,专科,34.78581,113.52723,河南省,郑州市,中原区
1567,河南医学高等专科学校,1,1,0,0,0,0,0,0,专科,34.39515,115.61796,河南省,商丘市,睢阳区
1568,郑州财税金融职业学院,1,1,0,0,0,0,0,0,专科,34.70707,113.71737,河南省,郑州市,管城回族区
1569,南阳农业职业学院,1,1,0,0,0,0,0,0,专科,32.99073,112.52851,河南省,南阳市,卧龙区
